Nr;Lat;Long;Latgms;Longms;Municipio;CodIbge;Estado;AreaKm2;DesmatadoAno;IncrementoAnoAnt;FlorestaAno;NuvemAno;NaoObservadoAno;NaoFlorestaAno;HidrografiaAno;Soma;Ano
1;-3.12356;-47.40354;S 3 7 24.82;O 47 24 12.74;Paragominas;1505502;PA;19465;7212.3;;12208.2;0.0;1.4;7.1;36.0;100;2000
2;-7.461139999999999;-52.46225;S 7 27 40.10;O 52 27 44.10;São Félix do Xingu;1507300;PA;84253;7037.4;;72482.1;0.0;6.5;3788.0;939.0;100;2000
3;-5.52503;-49.944179999999996;S 5 31 30.11;O 49 56 39.05;Marabá;1504208;PA;15161;5818.9;;9218.2;0.0;1.7;36.2;86.0;100;2000
4;-11.22873;-57.647369999999995;S 11 13 43.43;O 57 38 50.53;Juara;5105101;MT;22666;5520.7;;15388.4;0.0;29.3;1600.6;127.0;100;2000
5;-4.29175;-45.936820000000004;S 4 17 30.30;O 45 56 12.55;Santa Luzia;2110005;MA;6245;5373.3;;871.3;0.0;0.4;0.0;0.0;100;2000
6;-4.7020800000000005;-47.22036;S 4 42 7.49;O 47 13 13.30;Açailândia;2100055;MA;5846;4816.6;;1028.1;0.0;1.3;0.0;0.0;100;2000
7;-9.276660000000001;-50.54546;S 9 16 35.98;O 50 32 43.66;Santana do Araguaia;1506708;PA;11609;4614.7;;6120.7;0.0;0.3;808.4;64.9;99;2000
8;-8.50875;-51.37212;S 8 30 31.50;O 51 22 19.63;Cumaru do Norte;1502764;PA;17105;4172.5;;11496.2;0.0;0.3;1436.0;0.0;100;2000
9;-4.4814099999999994;-48.46332;S 4 28 53.08;O 48 27 47.95;Rondon do Pará;1506187;PA;8286;4158.2;;4127.8;0.0;0.0;0.0;0.0;100;2000
10;-8.64175;-50.39224;S 8 38 30.30;O 50 23 32.06;Santa Maria das Barreiras;1506583;PA;10351;4018.1;;3775.0;0.0;0.0;2508.9;49.0;99;2000
11;-6.7617;-50.328;S 6 45 42.12;O 50 19 40.80;Água Azul do Norte;1500347;PA;7125;3963.0;;3034.1;0.0;0.0;127.9;0.0;99;2000
12;-1.02109;-54.286809999999996;S 1 1 15.92;O 54 17 12.52;Monte Alegre;1504802;PA;19516;3935.6;;12637.5;0.0;3.8;1799.4;1139.7;100;2000
13;-8.98448;-63.99115;S 8 59 4.13;O 63 59 28.14;Porto Velho;1100205;RO;34631;3888.3;;29536.3;0.0;23.4;431.9;751.1;100;2000
14;-10.68304;-52.63992;S 10 40 58.94;O 52 38 23.71;São José do Xingu;5107354;MT;7465;3848.3;;3248.9;0.0;4.6;306.2;57.0;99;2000
15;-10.04165;-56.40435;S 10 2 29.94;O 56 24 15.66;Alta Floresta;5100250;MT;8986;3825.3;;4864.3;0.0;1.6;258.7;36.1;100;2000
16;-15.13556;-60.01729;S 15 8 8.02;O 60 1 2.24;Vila Bela da Santíssima Trindade;5105507;MT;13521;3778.8;;3059.3;0.0;19.6;6590.4;72.9;100;2000
17;-2.81346;-55.58935;S 2 48 48.46;O 55 35 21.66;Santarém;1506807;PA;22890;3764.4;;14574.0;0.0;0.3;663.5;3887.8;100;2000
18;-15.428920000000002;-59.30169;S 15 25 44.11;O 59 18 6.08;Pontes e Lacerda;5106752;MT;8639;3454.2;;1859.0;0.0;3.0;3322.8;0.0;99;2000
19;-11.479560000000001;-52.50108;S 11 28 46.42;O 52 30 3.89;São Félix do Araguaia;5107859;MT;16851;3396.5;;7212.2;0.0;0.7;6180.1;61.5;99;2000
20;-12.69331;-55.777409999999996;S 12 41 35.92;O 55 46 38.68;Sorriso;5107925;MT;9349;3341.4;;1887.8;0.0;0.7;4119.1;0.0;100;2000
21;-11.52357;-59.196509999999996;S 11 31 24.85;O 59 11 47.44;Juína;5105150;MT;26359;3286.6;;20388.8;0.0;3.0;2639.6;41.0;100;2000
22;-6.03172;-55.968959999999996;S 6 1 54.19;O 55 58 8.26;Itaituba;1503606;PA;62095;3210.3;;57610.0;0.0;3.6;460.8;810.3;100;2000
23;-5.07669;-49.89878;S 5 4 36.08;O 49 53 55.61;Itupiranga;1503705;PA;7901;3180.2;;4602.3;0.0;1.0;5.6;111.9;100;2000
24;-6.84864;-49.25551;S 6 50 55.10;O 49 15 19.84;Xinguara;1508407;PA;3793;3146.3;;629.1;0.0;0.0;0.0;17.6;100;2000
25;-1.09331;-46.26696;S 1 5 35.92;O 46 16 1.06;Viseu;1508308;PA;4971;3137.1;;1699.6;0.9;0.7;45.4;87.3;100;2000
26;-12.2343;-52.7084;S 12 14 3.48;O 52 42 30.24;Querência;5107065;MT;17854;3133.6;;12365.1;0.0;0.8;2273.5;81.0;99;2000
27;-4.52485;-50.19409;S 4 31 29.46;O 50 11 38.72;Novo Repartimento;1505064;PA;15432;3105.8;;11157.0;0.0;0.1;1.0;1168.1;100;2000
28;-10.01731;-51.43727;S 10 1 2.32;O 51 26 14.17;Vila Rica;5108600;MT;7443;3039.4;;4206.9;0.0;0.0;186.8;9.9;100;2000
29;-7.36998;-50.10481;S 7 22 11.93;O 50 6 17.32;Rio Maria;1506161;PA;4122;3035.0;;950.9;0.0;0.0;128.6;7.5;100;2000
30;-14.988579999999999;-57.97035;S 14 59 18.89;O 57 58 13.26;Barra do Bugres;5101704;MT;6066;2968.3;;2278.6;0.0;0.0;815.7;3.4;100;2000
31;-4.01828;-48.73253;S 4 1 5.81;O 48 43 57.11;Goianésia do Pará;1503093;PA;7048;2963.9;;3602.7;0.0;0.1;0.0;481.3;99;2000
32;-12.10929;-58.17906;S 12 6 33.44;O 58 10 44.62;Brasnorte;5101902;MT;15999;2720.1;;9482.2;0.0;0.0;3762.9;33.8;100;2000
33;-2.53518;-49.05922;S 2 32 6.65;O 49 3 33.19;Moju;1504703;PA;9129;2688.0;;5057.2;0.0;1137.8;190.4;55.6;100;2000
34;-9.978660000000001;-63.05645;S 9 58 43.18;O 63 3 23.22;Ariquemes;1100023;RO;4481;2661.2;;1730.0;0.0;0.0;89.6;0.2;100;2000
35;-7.25203;-48.282;S 7 15 7.31;O 48 16 55.20;Araguaína;1702109;TO;4019;2606.2;;490.6;0.0;0.7;897.6;23.9;100;2000
36;-8.206719999999999;-49.54786;S 8 12 24.19;O 49 32 52.30;Conceição do Araguaia;1502707;PA;5847;2581.5;;1273.3;0.0;0.3;1874.8;117.1;100;2000
37;-6.5522599999999995;-48.99483;S 6 33 8.14;O 48 59 41.39;Piçarra;1505635;PA;3322;2514.1;;744.0;0.0;0.0;0.0;63.9;100;2000
38;-8.05636;-50.21305;S 8 3 22.90;O 50 12 46.98;Redenção;1506138;PA;3830;2511.4;;613.5;0.0;0.1;705.0;0.0;99;2000
39;-4.20041;-47.82354;S 4 12 1.48;O 47 49 24.74;Dom Eliseu;1502939;PA;5296;2500.4;;2794.5;0.0;1.1;0.0;0.0;100;2000
40;-10.40724;-51.737429999999996;S 10 24 26.06;O 51 44 14.75;Confresa;5103353;MT;5801;2477.3;;3001.3;0.0;0.0;320.3;2.1;100;2000
41;-10.64842;-62.5532;S 10 38 54.31;O 62 33 11.52;Jaru;1100114;RO;2976;2466.4;;464.7;0.0;0.1;44.8;0.0;100;2000
42;-10.44844;-61.69061;S 10 26 54.38;O 61 41 26.20;Ji-Paraná;1100122;RO;6955;2461.9;;4389.4;0.0;2.1;66.3;35.3;100;2000
43;-10.67042;-56.035869999999996;S 10 40 13.51;O 56 2 9.13;Nova Canaã do Norte;5106216;MT;5975;2452.7;;2425.8;0.0;0.0;1059.4;37.1;100;2000
44;-5.68391;-45.23172;S 5 41 2.08;O 45 13 54.19;Barra do Corda;2101608;MA;7962;2450.7;;3005.7;0.0;1.1;2499.9;4.6;100;2000
45;-12.96602;-54.87016;S 12 57 57.67;O 54 52 12.58;Nova Ubiratã;5106240;MT;12694;2446.4;;7454.5;0.0;0.1;2792.5;0.5;99;2000
46;-2.6602799999999998;-48.258179999999996;S 2 39 37.01;O 48 15 29.45;Tomé-Açu;1508001;PA;5169;2442.2;;2573.6;0.0;152.7;0.1;0.4;100;2000
47;-3.8018699999999996;-47.54701;S 3 48 6.73;O 47 32 49.24;Ulianópolis;1508126;PA;5122;2399.9;;2721.9;0.0;0.2;0.0;0.0;99;2000
48;-10.56223;-55.44101;S 10 33 44.03;O 55 26 27.64;Colíder;5103205;MT;3039;2393.0;;639.7;0.0;0.0;2.3;4.0;99;2000
49;-13.19225;-59.8433;S 13 11 32.10;O 59 50 35.88;Comodoro;5103304;MT;21863;2352.1;;9718.9;0.0;16.2;9773.1;2.7;99;2000
50;-3.96461;-46.50727;S 3 57 52.60;O 46 30 26.17;Bom Jardim;2102002;MA;6648;2342.6;;4241.8;0.0;0.2;55.9;7.5;100;2000
51;-11.30292;-61.25045;S 11 18 10.51;O 61 15 1.62;Cacoal;1100049;RO;3821;2311.3;;1477.7;0.0;0.0;26.2;5.8;100;2000
52;-6.16889;-48.75597;S 6 10 8.00;O 48 45 21.49;São Geraldo do Araguaia;1507458;PA;3181;2285.6;;552.1;0.0;0.0;314.1;29.2;100;2000
53;-10.92424;-54.07501;S 10 55 27.26;O 54 4 30.04;Marcelândia;5105580;MT;12295;2271.6;;9785.9;0.0;4.1;218.8;14.6;100;2000
54;-6.12012;-49.26085;S 6 7 12.43;O 49 15 39.06;Eldorado dos Carajás;1502954;PA;2968;2237.7;;730.3;0.0;0.0;0.0;0.0;100;2000
55;-2.06616;-47.25773;S 2 3 58.18;O 47 15 27.83;Capitão Poço;1502301;PA;2924;2214.1;;0.0;0.0;812.0;2.0;1.8;103;2000
56;-12.20214;-51.77758;S 12 12 7.70;O 51 46 39.29;Bom Jesus do Araguaia;5101852;MT;4282;2206.3;;1697.7;0.0;1.1;375.3;1.6;100;2000
57;-13.521189999999999;-56.080180000000006;S 13 31 16.28;O 56 4 48.65;Nova Mutum;5106224;MT;9546;2162.0;;4003.8;0.0;0.6;3372.4;7.2;100;2000
58;-12.57882;-60.88638;S 12 34 43.75;O 60 53 10.97;Chupinguaia;1100924;RO;5164;2127.8;;2707.4;0.0;0.0;328.4;0.4;100;2000
59;-10.19363;-53.563140000000004;S 10 11 37.07;O 53 33 47.30;Peixoto de Azevedo;5106422;MT;14400;2109.5;;11043.8;0.0;2.9;1172.8;71.0;99;2000
60;-3.7568599999999996;-49.46757;S 3 45 24.70;O 49 28 3.25;Breu Branco;1501782;PA;3953;2100.2;;1588.8;0.0;0.2;0.9;262.9;100;2000
61;-4.16557;-47.173559999999995;S 4 9 56.05;O 47 10 24.82;Itinga do Maranhão;2105427;MA;3605;2066.7;;1538.2;0.0;0.0;0.0;0.1;100;2000
62;-6.3166400000000005;-54.2628;S 6 18 59.90;O 54 15 46.08;Altamira;1500602;PA;159540;2058.8;;152013.6;16.2;22.5;3760.6;1668.3;100;2000
63;-12.87129;-53.35524;S 12 52 16.64;O 53 21 18.86;Gaúcha do Norte;5103858;MT;16898;2058.7;;10199.0;0.0;0.0;4609.7;30.6;100;2000
64;-14.4327;-58.38021;S 14 25 57.72;O 58 22 48.76;Tangará da Serra;5107958;MT;11333;2015.2;;804.1;0.0;0.0;8512.8;0.9;100;2000
65;-12.88061;-61.22315;S 12 52 50.20;O 61 13 23.34;Corumbiara;1100072;RO;3081;1994.3;;987.3;0.0;0.0;99.4;0.0;100;2000
66;-6.25014;-49.69278;S 6 15 0.50;O 49 41 34.01;Curionópolis;1502772;PA;2375;1993.5;;375.3;0.0;1.6;4.6;0.0;99;2000
67;-6.813339999999999;-51.41284;S 6 48 48.02;O 51 24 46.22;Tucumã;1508084;PA;2513;1976.4;;528.5;0.0;0.5;0.0;7.6;100;2000
68;-10.95372;-58.64204;S 10 57 13.39;O 58 38 31.34;Castanheira;5102850;MT;3963;1961.8;;1968.1;0.0;1.0;3.4;28.7;100;2000
69;-9.99527;-68.15925;S 9 59 42.97;O 68 9 33.30;Rio Branco;1200401;AC;9113;1944.9;;7167.9;0.0;0.1;0.0;0.1;100;2000
70;-10.10335;-59.718340000000005;S 10 6 12.06;O 59 43 6.02;Aripuanã;5101407;MT;25182;1907.8;;22932.5;0.0;4.8;283.1;53.8;99;2000
71;-2.93713;-47.96702;S 2 56 13.67;O 47 58 1.27;Ipixuna do Pará;1503457;PA;5245;1886.3;;3325.1;0.0;1.0;6.7;25.9;99;2000
72;-2.03379;-48.31904;S 2 2 1.64;O 48 19 8.54;Acará;1500206;PA;4361;1883.9;;0.0;0.0;2680.6;43.3;70.5;107;2000
73;-11.862160000000001;-60.80891;S 11 51 43.78;O 60 48 32.08;Pimenta Bueno;1100189;RO;6280;1823.7;;3404.4;0.0;0.0;1046.7;5.2;100;2000
74;-5.380730000000001;-46.60406;S 5 22 50.63;O 46 36 14.62;Amarante do Maranhão;2100600;MA;7733;1822.5;;4225.7;0.0;6.3;1678.5;0.0;100;2000
75;-15.80816;-54.25666;S 15 48 29.38;O 54 15 23.98;Poxoréo;5107008;MT;6922;1816.0;;133.2;0.0;0.0;4972.8;0.0;100;2000
76;-11.36838;-60.731080000000006;S 11 22 6.17;O 60 43 51.89;Espigão D'Oeste;1100098;RO;4551;1808.3;;2445.9;0.0;0.0;296.5;0.3;100;2000
77;-7.90803;-55.59551999999999;S 7 54 28.91;O 55 35 43.87;Novo Progresso;1505031;PA;38183;1789.8;;32850.2;0.0;11.0;3457.3;74.7;100;2000
78;-12.47301;-62.13723;S 12 28 22.84;O 62 8 14.03;Alta Floresta D'Oeste;1100015;RO;7137;1761.1;;3639.6;0.0;6.1;1708.0;22.2;100;2000
79;-4.52261;-46.70062;S 4 31 21.40;O 46 42 2.23;Bom Jesus das Selvas;2102036;MA;2700;1761.0;;939.0;0.0;0.0;0.0;0.0;100;2000
80;-10.493269999999999;-54.989180000000005;S 10 29 35.77;O 54 59 21.05;Terra Nova do Norte;5108055;MT;2551;1760.8;;785.6;0.0;0.0;4.6;0.0;100;2000
81;-3.06829;-46.47701;S 3 4 5.84;O 46 28 37.24;Centro Novo do Maranhão;2103174;MA;8329;1758.7;;6569.8;0.2;0.0;0.0;0.3;100;2000
82;-9.78024;-54.5731;S 9 46 48.86;O 54 34 23.16;Guarantã do Norte;5104104;MT;4713;1754.0;;2234.6;0.0;0.0;724.2;0.2;100;2000
83;-11.74201;-55.40265;S 11 44 31.24;O 55 24 9.54;Sinop;5107909;MT;3935;1706.5;;2073.8;0.0;0.0;136.3;18.4;99;2000
84;-5.641780000000001;-48.00928;S 5 38 30.41;O 48 0 33.41;Araguatins;1702208;TO;2642;1698.6;;337.0;0.0;0.7;539.0;66.7;100;2000
85;-10.507819999999999;-62.01015;S 10 30 28.15;O 62 0 36.54;Ouro Preto do Oeste;1100155;RO;1990;1683.1;;289.6;0.0;0.3;15.9;1.1;100;2000
86;-13.33915;-54.2842;S 13 20 20.94;O 54 17 3.12;Paranatinga;5106307;MT;24181;1682.3;;5837.3;0.0;5.5;16647.8;8.1;99;2000
87;-12.76195;-57.10309;S 12 45 43.02;O 57 6 11.12;Nova Maringá;5108907;MT;11528;1677.7;;9155.7;0.0;0.9;685.5;8.2;100;2000
88;-0.9552799999999999;-46.65764;S 0 57 19.01;O 46 39 27.50;Bragança;1501709;PA;2107;1672.7;;339.7;0.5;0.3;37.6;56.2;99;2000
89;-6.48129;-50.03153;S 6 28 52.64;O 50 1 53.51;Canaã dos Carajás;1502152;PA;3156;1650.8;;1399.5;0.0;0.0;105.6;0.1;100;2000
90;-3.96927;-46.1101;S 3 58 9.37;O 46 6 36.36;Alto Alegre do Pindaré;2100477;MA;1951;1644.3;;252.8;0.0;0.4;53.5;0.0;100;2000
91;-10.2875;-50.98703;S 10 17 15.00;O 50 59 13.31;Santa Terezinha;5107776;MT;6459;1635.7;;3532.3;0.0;0.1;1243.7;47.2;100;2000
92;-7.552460000000001;-49.60538;S 7 33 8.86;O 49 36 19.37;Floresta do Araguaia;1503044;PA;3454;1612.0;;618.7;0.0;0.2;1177.7;45.4;100;2000
93;-9.926810000000001;-57.2862;S 9 55 36.52;O 57 17 10.32;Nova Monte Verde;5108956;MT;5277;1602.7;;3654.7;0.0;0.0;12.9;6.7;100;2000
94;-16.539920000000002;-57.79439;S 16 32 23.71;O 57 47 39.80;Cáceres;5102504;MT;24399;1584.5;;610.8;0.0;1331.4;19780.8;1091.5;99;2000
95;-5.03734;-45.894529999999996;S 5 2 14.42;O 45 53 40.31;Arame;2100956;MA;3075;1583.0;;1153.9;0.0;1.5;336.5;0.1;99;2000
96;-11.77239;-56.69871;S 11 46 20.60;O 56 41 55.36;Porto dos Gaúchos;5106802;MT;7048;1561.5;;5414.9;0.0;0.1;48.5;23.0;100;2000
97;-9.1898;-61.925990000000006;S 9 11 23.28;O 61 55 33.56;Machadinho D'Oeste;1100130;RO;8590;1558.8;;6587.9;0.0;0.0;385.4;57.9;100;2000
98;-10.063880000000001;-55.74729;S 10 3 49.97;O 55 44 50.24;Carlinda;5102793;MT;2417;1557.9;;827.0;0.0;0.0;0.0;32.1;100;2000
99;-3.6996900000000004;-50.602579999999996;S 3 41 58.88;O 50 36 9.29;Pacajá;1505486;PA;11851;1555.5;;10295.4;0.0;0.1;0.0;0.0;100;2000
100;-7.47905;-50.67811;S 7 28 44.58;O 50 40 41.20;Bannach;1501253;PA;2964;1554.7;;1346.8;0.0;0.0;62.5;0.0;100;2000
101;-4.71879;-45.223459999999996;S 4 43 7.64;O 45 13 24.46;Lago da Pedra;2105708;MA;1552;1550.0;;2.0;0.0;0.0;0.0;0.0;100;2000
102;-11.6207;-62.70568000000001;S 11 37 14.52;O 62 42 20.45;São Miguel do Guaporé;1100320;RO;8102;1540.4;;4763.3;0.0;0.1;1798.2;0.0;99;2000
103;-13.19259;-52.63275;S 13 11 33.32;O 52 37 57.90;Canarana;5102702;MT;10840;1534.6;;2512.7;0.0;1.7;6784.7;6.3;100;2000
104;-11.19374;-61.84743;S 11 11 37.46;O 61 50 50.75;Presidente Médici;1100254;RO;1773;1533.3;;212.6;0.0;0.0;17.6;9.5;100;2000
105;-5.02798;-48.77112;S 5 1 40.73;O 48 46 16.03;Bom Jesus do Tocantins;1501576;PA;2827;1526.7;;1190.3;0.0;0.8;70.0;39.2;100;2000
106;-7.99015;-48.71085;S 7 59 24.54;O 48 42 39.06;Bandeirantes do Tocantins;1703057;TO;1548;1487.4;;60.4;0.0;0.0;0.2;0.0;100;2000
107;-10.0886;-62.27984;S 10 5 18.96;O 62 16 47.42;Theobroma;1101609;RO;2217;1468.7;;747.9;0.0;0.0;0.0;0.4;99;2000
108;-7.729360000000001;-49.0087;S 7 43 45.70;O 49 0 31.32;Arapoema;1702307;TO;1558;1461.2;;72.8;0.0;0.0;0.0;24.0;100;2000
109;0.07317;-55.75937;N 0 4 23.41;O 55 45 33.73;Óbidos;1505106;PA;28031;1454.2;;20627.2;0.0;2.7;4595.4;1351.5;100;2000
110;-3.13511;-58.81276;S 3 8 6.40;O 58 48 45.94;Itacoatiara;1301902;AM;8927;1448.3;;4983.3;0.0;0.5;829.3;1665.6;99;2000
111;-2.9033599999999997;-48.78385;S 2 54 12.10;O 48 47 1.86;Tailândia;1507953;PA;4451;1445.0;;3006.0;0.0;0.0;0.0;0.0;100;2000
112;-14.4023;-59.7406;S 14 24 8.28;O 59 44 26.16;Nova Lacerda;5106182;MT;4744;1423.3;;1821.4;0.0;0.0;1499.3;0.0;99;2000
113;-10.314160000000001;-61.08724;S 10 18 50.98;O 61 5 14.06;Rondolândia;5107578;MT;12743;1410.6;;11254.6;0.0;1.2;52.2;24.4;99;2000
114;-9.6969;-57.9698;S 9 41 48.84;O 57 58 11.28;Nova Bandeirantes;5106158;MT;9558;1406.2;;7928.8;0.0;1.1;91.0;130.9;99;2000
115;0.40528000000000003;-54.006569999999996;N 0 24 19.01;O 54 0 23.65;Almeirim;1500503;PA;72964;1396.3;;67760.9;2.3;58.5;2715.5;1030.5;99;2000
116;-4.1998;-55.32309;S 4 11 59.28;O 55 19 23.12;Rurópolis;1506195;PA;7025;1376.1;;5601.1;0.0;0.0;0.0;47.8;100;2000
117;-9.81601;-55.354690000000005;S 9 48 57.64;O 55 21 16.88;Novo Mundo;5106265;MT;5803;1355.7;;3892.6;0.0;0.3;536.1;18.3;100;2000
118;-9.97788;-67.32124;S 9 58 40.37;O 67 19 16.46;Senador Guiomard;1200450;AC;2384;1352.3;;1031.7;0.0;0.0;0.0;0.0;100;2000
119;-4.421069999999999;-46.360459999999996;S 4 25 15.85;O 46 21 37.66;Buriticupu;2102325;MA;2568;1342.8;;1223.6;0.0;0.6;0.0;1.0;100;2000
120;-12.3802;-62.946490000000004;S 12 22 48.72;O 62 56 47.36;São Francisco do Guaporé;1101492;RO;11095;1341.1;;6586.3;0.0;0.0;3144.7;22.9;100;2000
121;-4.5925199999999995;-49.20947;S 4 35 33.07;O 49 12 34.09;Jacundá;1503804;PA;2013;1335.4;;413.3;0.0;0.0;0.0;264.3;100;2000
122;-3.16791;-49.75057;S 3 10 4.48;O 49 45 2.05;Baião;1501204;PA;3768;1325.5;;1731.2;0.0;0.0;475.4;235.9;100;2000
123;-7.484189999999999;-51.51165;S 7 29 3.08;O 51 30 41.94;Ourilândia do Norte;1505437;PA;14357;1322.6;;9861.0;0.0;0.4;3169.4;3.6;100;2000
124;-12.123510000000001;-60.112109999999994;S 12 7 24.64;O 60 6 43.60;Vilhena;1100304;RO;11584;1319.6;;8573.2;0.0;3.9;1685.8;1.5;99;2000
125;-11.23109;-51.79815;S 11 13 51.92;O 51 47 53.34;Canabrava do Norte;5102694;MT;3451;1318.4;;931.3;0.0;0.0;1201.1;0.2;100;2000
126;-9.56444;-56.64536999999999;S 9 33 51.98;O 56 38 43.33;Paranaíta;5106299;MT;4800;1313.8;;3396.3;0.0;1.6;31.4;56.9;100;2000
127;-10.404630000000001;-64.77513;S 10 24 16.67;O 64 46 30.47;Nova Mamoré;1100338;RO;10241;1310.1;;7526.1;0.0;3.4;1358.1;43.3;99;2000
128;-8.38295;-65.70994;S 8 22 58.62;O 65 42 35.78;Lábrea;1302405;AM;69672;1297.2;;66126.0;0.0;9.6;1793.3;445.9;99;2000
129;-12.58197;-56.49045;S 12 34 55.09;O 56 29 25.62;Tapurah;5108006;MT;4491;1267.5;;2532.8;0.0;0.0;680.6;10.1;99;2000
130;-15.002289999999999;-58.1721;S 15 0 8.24;O 58 10 19.56;Salto do Céu;5107750;MT;1776;1263.0;;461.2;0.0;0.0;51.7;0.1;100;2000
131;-12.88015;-51.58;S 12 52 48.54;O 51 34 48.00;Ribeirão Cascalheira;5107180;MT;11364;1255.1;;2153.9;0.0;0.2;7938.9;15.9;99;2000
132;-11.740310000000001;-61.75168000000001;S 11 44 25.12;O 61 45 6.05;Rolim de Moura;1100288;RO;1471;1254.4;;216.6;0.0;0.0;0.0;0.0;100;2000
133;-11.067169999999999;-56.77741999999999;S 11 4 1.81;O 56 46 38.71;Tabaporã;5107941;MT;8231;1251.5;;4732.5;0.0;0.7;2240.1;6.2;100;2000
134;-2.22129;-47.08493;S 2 13 16.64;O 47 5 5.75;Garrafão do Norte;1503077;PA;1610;1249.1;;360.1;0.0;0.8;0.0;0.0;100;2000
135;-12.48409;-55.323840000000004;S 12 29 2.72;O 55 19 25.82;Vera;5108501;MT;2952;1233.6;;1699.1;0.0;1.4;17.8;0.1;99;2000
136;-3.91426;-54.44242;S 3 54 51.34;O 54 26 32.71;Placas;1505650;PA;7173;1226.2;;5946.6;0.0;0.0;0.1;0.1;99;2000
137;-15.356079999999999;-52.65919;S 15 21 21.89;O 52 39 33.08;Barra do Garças;5101803;MT;9146;1218.1;;284.8;0.0;4.5;7626.4;12.2;99;2000
138;-8.81858;-68.00168000000001;S 8 49 6.89;O 68 0 6.05;Boca do Acre;1300706;AM;22595;1209.8;;21200.9;0.0;1.9;58.4;124.0;100;2000
139;-15.264829999999998;-58.407830000000004;S 15 15 53.39;O 58 24 28.19;Araputanga;5101258;MT;1608;1207.5;;364.6;0.0;0.7;35.2;0.0;99;2000
140;-11.333960000000001;-62.46869;S 11 20 2.26;O 62 28 7.28;Alvorada D'Oeste;1100346;RO;3060;1204.9;;1035.5;0.0;0.0;819.6;0.0;100;2000
141;-1.72515;-46.89921;S 1 43 30.54;O 46 53 57.16;Santa Luzia do Pará;1506559;PA;1367;1201.9;;138.4;0.1;26.6;0.0;0.0;100;2000
142;-7.0407;-49.04623;S 7 2 26.52;O 49 2 46.43;Santa Fé do Araguaia;1718865;TO;1683;1201.5;;422.2;0.0;0.0;0.0;59.3;100;2000
143;-4.11944;-44.73579;S 4 7 9.98;O 44 44 8.84;Bacabal;2101202;MA;1705;1198.0;;0.0;0.0;344.5;360.8;2.5;111;2000
144;-5.05561;-47.80973;S 5 3 20.20;O 47 48 35.03;Cidelândia;2103257;MA;1474;1195.7;;250.0;0.0;0.7;20.8;6.8;100;2000
145;-9.97964;-54.15149;S 9 58 46.70;O 54 9 5.36;Matupá;5105606;MT;5151;1183.8;;3748.5;0.0;0.0;218.7;0.0;100;2000
146;-2.26004;-47.7069;S 2 15 36.14;O 47 42 24.84;Aurora do Pará;1500958;PA;1824;1175.8;;0.0;0.0;801.3;0.0;17.3;109;2000
147;0.26778;-57.522490000000005;N 0 16 4.01;O 57 31 20.96;Oriximiná;1505304;PA;107782;1169.8;;101119.5;4.0;83.5;3636.6;1768.6;100;2000
148;-15.532160000000001;-58.336969999999994;S 15 31 55.78;O 58 20 13.09;São José dos Quatro Marcos;5107107;MT;1284;1168.5;;79.4;0.0;0.0;36.1;0.0;99;2000
149;-9.69738;-63.3777;S 9 41 50.57;O 63 22 39.72;Alto Paraíso;1100403;RO;2683;1167.9;;1496.6;0.0;0.1;0.8;17.6;100;2000
150;-13.436010000000001;-56.79362;S 13 26 9.64;O 56 47 37.03;São José do Rio Claro;5107305;MT;4563;1167.0;;2290.3;0.0;0.0;1103.6;2.1;100;2000
151;-4.1550199999999995;-45.29588;S 4 9 18.07;O 45 17 45.17;Vitorino Freire;2113009;MA;1209;1166.3;;0.0;0.0;0.0;43.3;0.0;100;2000
152;-10.087010000000001;-63.91064;S 10 5 13.24;O 63 54 38.30;Buritis;1100452;RO;3315;1166.3;;2143.8;0.0;0.0;4.8;0.1;99;2000
153;-10.497710000000001;-63.76416999999999;S 10 29 51.76;O 63 45 51.01;Campo Novo de Rondônia;1100700;RO;3491;1165.9;;2050.9;0.0;0.0;274.2;0.0;100;2000
154;-11.47825;-55.06672;S 11 28 41.70;O 55 4 0.19;Cláudia;5103056;MT;3865;1163.0;;2693.1;0.0;0.0;0.0;8.9;100;2000
155;-11.12675;-55.571830000000006;S 11 7 36.30;O 55 34 18.59;Itaúba;5104559;MT;4612;1159.3;;3002.2;0.0;0.0;418.5;32.0;100;2000
156;-11.32199;-64.41651999999999;S 11 19 19.16;O 64 24 59.47;Guajará-Mirim;1100106;RO;25260;1152.5;;20070.3;0.0;72.0;3798.4;166.8;100;2000
157;-2.3944099999999997;-46.791;S 2 23 39.88;O 46 47 27.60;Nova Esperança do Piriá;1504950;PA;2829;1146.4;;1682.1;0.0;0.5;0.0;0.0;100;2000
158;-13.13652;-60.53715;S 13 8 11.47;O 60 32 13.74;Colorado do Oeste;1100064;RO;1460;1144.4;;261.7;0.0;0.0;53.9;0.0;99;2000
159;-0.30798000000000003;-55.15106;S 0 18 28.73;O 55 9 3.82;Alenquer;1500404;PA;22286;1143.3;;18072.2;0.0;4.5;2476.4;589.6;100;2000
160;-6.83358;-49.56823;S 6 50 0.89;O 49 34 5.63;Sapucaia;1507755;PA;1300;1137.2;;162.8;0.0;0.0;0.0;0.0;100;2000
161;-10.82195;-63.210730000000005;S 10 49 19.02;O 63 12 38.63;Governador Jorge Teixeira;1101005;RO;5131;1132.8;;3806.8;0.0;0.0;191.4;0.0;100;2000
162;-14.743070000000001;-55.22435;S 14 44 35.05;O 55 13 27.66;Nova Brasilândia;5106208;MT;3268;1132.8;;225.6;0.0;0.0;1881.9;27.7;100;2000
163;-10.32935;-62.96801;S 10 19 45.66;O 62 58 4.84;Cacaulândia;1100601;RO;1985;1130.1;;813.8;0.0;0.0;41.1;0.0;100;2000
164;-5.24148;-58.19461999999999;S 5 14 29.33;O 58 11 40.63;Maués;1302900;AM;40090;1129.0;;36791.6;0.0;2.2;872.3;1294.9;100;2000
165;-6.19412;-48.20527;S 6 11 38.83;O 48 12 18.97;Ananás;1701002;TO;1587;1124.5;;224.5;0.0;1.8;192.8;43.4;100;2000
166;-6.19825;-50.4301;S 6 11 53.70;O 50 25 48.36;Parauapebas;1505536;PA;6968;1119.5;;5761.1;0.0;0.0;85.6;1.8;100;2000
167;-8.26015;-71.43408000000001;S 8 15 36.54;O 71 26 2.69;Tarauacá;1200609;AC;21156;1115.1;;20024.3;0.0;1.9;1.1;13.6;100;2000
168;-5.68166;-48.73065;S 5 40 53.98;O 48 43 50.34;São Domingos do Araguaia;1507151;PA;1397;1110.8;;286.2;0.0;0.0;0.0;0.0;100;2000
169;-1.9272900000000002;-47.75973;S 1 55 38.24;O 47 45 35.03;São Domingos do Capim;1507201;PA;1686;1109.0;;0.0;0.0;1671.7;15.2;35.9;167;2000
170;-7.5521899999999995;-48.99658;S 7 33 7.88;O 48 59 47.69;Pau D'Arco;1716307;TO;1381;1106.3;;157.5;0.0;0.0;83.7;33.5;100;2000
171;-14.720460000000001;-56.952459999999995;S 14 43 13.66;O 56 57 8.86;Denise;5103452;MT;1303;1105.5;;192.1;0.0;0.0;5.4;0.0;99;2000
172;-10.91215;-55.03085;S 10 54 43.74;O 55 1 51.06;Nova Santa Helena;5106190;MT;2346;1098.6;;1246.2;0.0;0.1;1.1;0.0;99;2000
173;-2.5729;-60.37242;S 2 34 22.44;O 60 22 20.71;Manaus;1302603;AM;11473;1096.7;;8825.3;0.0;0.2;3.0;1547.8;100;2000
174;-5.3869;-47.57778;S 5 23 12.84;O 47 34 40.01;Imperatriz;2105302;MA;1375;1096.5;;102.1;0.0;0.0;155.1;21.3;100;2000
175;-5.31274;-47.07804;S 5 18 45.86;O 47 4 40.94;Senador La Rocque;2111763;MA;1247;1092.0;;155.0;0.0;0.0;0.0;0.0;100;2000
176;-15.44721;-57.721090000000004;S 15 26 49.96;O 57 43 15.92;Lambari D'Oeste;5105234;MT;1773;1085.7;;509.1;0.0;0.7;172.7;4.8;100;2000
177;-15.303189999999999;-58.8557;S 15 18 11.48;O 58 51 20.52;Jauru;5105002;MT;1316;1081.0;;122.4;0.0;0.3;112.3;0.0;99;2000
178;-9.771469999999999;-69.33204;S 9 46 17.29;O 69 19 55.34;Sena Madureira;1200500;AC;24599;1075.0;;23505.2;0.0;15.8;2.4;0.6;99;2000
179;-4.52984;-45.38584;S 4 31 47.42;O 45 23 9.02;Paulo Ramos;2108108;MA;1063;1064.0;;0.0;0.0;0.0;0.0;0.0;100;2000
180;-8.89638;-70.65907;S 8 53 46.97;O 70 39 32.65;Feijó;1200302;AC;29179;1048.8;;28055.5;0.0;57.0;0.4;17.3;100;2000
181;-6.734539999999999;-48.25245;S 6 44 4.34;O 48 15 8.82;Piraquê;1717206;TO;1374;1044.8;;256.2;0.0;0.2;72.8;0.0;100;2000
182;0.35952;-68.17017;N 0 21 34.27;O 68 10 12.61;São Gabriel da Cachoeira;1303809;AM;112476;1043.5;;109083.6;6.4;370.6;489.6;1482.3;100;2000
183;-8.964039999999999;-63.53626;S 8 57 50.54;O 63 32 10.54;Candeias do Jamari;1100809;RO;6931;1039.1;;5510.8;0.0;0.2;0.0;380.9;100;2000
184;-2.64774;-56.236909999999995;S 2 38 51.86;O 56 14 12.88;Juruti;1503903;PA;8308;1028.5;;5537.2;0.0;0.0;633.3;1109.0;100;2000
185;-11.82178;-53.9156;S 11 49 18.41;O 53 54 56.16;Feliz Natal;5103700;MT;11448;1020.1;;9699.4;0.0;4.1;703.0;21.4;100;2000
186;-11.94096;-56.04871;S 11 56 27.46;O 56 2 55.36;Ipiranga do Norte;5104526;MT;3449;1017.4;;1832.6;0.0;0.0;598.8;0.2;100;2000
187;-3.5763300000000005;-53.741009999999996;S 3 34 34.79;O 53 44 27.64;Uruará;1508159;PA;10794;1015.9;;9774.1;0.0;3.8;0.0;0.2;100;2000
188;-10.2461;-63.3799;S 10 14 45.96;O 63 22 47.64;Monte Negro;1101401;RO;1955;1007.3;;903.0;0.0;0.0;44.7;0.0;100;2000
189;-6.787089999999999;-61.110009999999996;S 6 47 13.52;O 61 6 36.04;Manicoré;1302702;AM;48689;1006.7;;42691.6;0.0;17.4;4146.5;826.8;100;2000
190;-5.4154;-45.58874;S 5 24 55.44;O 45 35 19.46;Jenipapo dos Vieiras;2105476;MA;1981;1006.4;;810.1;0.0;0.0;164.5;0.0;99;2000
191;-10.04129;-52.55143;S 10 2 28.64;O 52 33 5.15;Santa Cruz do Xingu;5107743;MT;5627;1000.5;;2939.5;0.0;0.0;1621.6;65.4;100;2000
192;-8.76489;-48.40596;S 8 45 53.60;O 48 24 21.46;Guaraí;1709302;TO;2278;999.9;;197.3;0.0;0.1;1077.7;3.0;99;2000
193;-10.24035;-67.25291;S 10 14 25.26;O 67 15 10.48;Plácido de Castro;1200385;AC;1988;998.3;;986.4;0.0;3.3;0.0;0.0;100;2000
194;-13.010539999999999;-61.735859999999995;S 13 0 37.94;O 61 44 9.10;Pimenteiras do Oeste;1101468;RO;6065;998.0;;2580.9;0.0;33.9;2429.1;23.1;100;2000
195;-10.70365;-69.18608;S 10 42 13.14;O 69 11 9.89;Brasiléia;1200104;AC;4062;996.3;;3054.3;0.0;11.0;0.0;0.4;100;2000
196;2.53531;-62.003640000000004;N 2 32 7.12;O 62 0 13.10;Mucajaí;1400308;RR;12878;990.8;;11651.0;0.0;1.3;196.3;38.6;99;2000
197;-3.3035900000000002;-52.609609999999996;S 3 18 12.92;O 52 36 34.60;Brasil Novo;1501725;PA;6368;987.1;;5373.8;2.1;0.0;0.1;4.9;100;2000
198;-10.61178;-68.46285;S 10 36 42.41;O 68 27 46.26;Xapuri;1200708;AC;5511;986.9;;4523.3;0.0;0.8;0.0;0.0;100;2000
199;-5.01264;-49.20524;S 5 0 45.50;O 49 12 18.86;Nova Ipixuna;1504976;PA;1569;985.9;;366.7;0.0;0.0;122.6;93.8;100;2000
200;-3.83163;-59.45109;S 3 49 53.87;O 59 27 3.92;Autazes;1300300;AM;7636;980.6;;5175.1;0.0;0.1;464.3;1015.9;99;2000
201;-5.60091;-44.826879999999996;S 5 36 3.28;O 44 49 36.77;Tuntum;2112308;MA;3619;979.9;;661.4;0.0;0.2;1933.7;43.8;100;2000
202;-3.749;-60.147009999999995;S 3 44 56.40;O 60 8 49.24;Careiro;1301100;AM;6127;964.4;;4758.5;0.0;6.5;80.7;316.9;99;2000
203;-4.16542;-44.14074;S 4 9 55.51;O 44 8 26.66;Coroatá;2103604;MA;2298;963.9;;0.0;0.0;2298.4;0.0;0.0;141;2000
204;-7.59202;-59.44152;S 7 35 31.27;O 59 26 29.47;Apuí;1300144;AM;54490;955.9;;52689.7;0.0;15.2;625.0;204.2;100;2000
205;-3.19117;-51.871140000000004;S 3 11 28.21;O 51 52 16.10;Vitória do Xingu;1508357;PA;3136;943.7;;2042.6;0.2;0.0;0.1;149.4;99;2000
206;-16.48613;-55.26485;S 16 29 10.07;O 55 15 53.46;Santo Antônio do Leverger;5107800;MT;12262;940.7;;1199.7;0.0;0.4;10099.5;21.7;99;2000
207;-14.75593;-57.4141;S 14 45 21.35;O 57 24 50.76;Nova Olímpia;5106232;MT;1554;938.4;;298.9;0.0;0.0;316.7;0.0;100;2000
208;-1.8357299999999999;-47.39886;S 1 50 8.63;O 47 23 55.90;Irituia;1503507;PA;1387;937.8;;0.0;0.0;1366.3;17.2;3.3;167;2000
209;-2.0107;-46.41077;S 2 0 38.52;O 46 24 38.77;Cachoeira do Piriá;1501956;PA;2465;937.5;;1518.0;0.6;0.5;0.0;8.4;99;2000
210;-5.03923;-48.09734;S 5 2 21.23;O 48 5 50.42;Vila Nova dos Martírios;2112852;MA;1196;933.2;;120.4;0.0;1.4;131.8;9.2;100;2000
211;-7.01662;-48.76894;S 7 0 59.83;O 48 46 8.18;Muricilândia;1713957;TO;1193;927.5;;239.3;0.0;0.0;0.0;26.2;100;2000
212;-5.763730000000001;-48.49835;S 5 45 49.43;O 48 29 54.06;Brejo Grande do Araguaia;1501758;PA;1292;923.9;;311.6;0.0;0.0;29.8;26.7;100;2000
213;-6.598660000000001;-48.48198;S 6 35 55.18;O 48 28 55.13;Xambioá;1722107;TO;1191;920.3;;229.5;0.0;0.1;11.0;30.1;100;2000
214;-12.573360000000001;-61.76339;S 12 34 24.10;O 61 45 48.20;Alto Alegre dos Parecis;1100379;RO;3994;915.9;;2142.7;0.0;4.0;917.6;13.8;99;2000
215;-12.1423;-61.729459999999996;S 12 8 32.28;O 61 43 46.06;Santa Luzia D'Oeste;1100296;RO;1207;907.5;;299.5;0.0;0.0;0.0;0.0;100;2000
216;-16.19866;-55.005430000000004;S 16 11 55.18;O 55 0 19.55;Juscimeira;5105200;MT;2205;903.9;;55.5;0.0;0.0;1244.4;1.2;100;2000
217;-8.43914;-48.76023;S 8 26 20.90;O 48 45 36.83;Itaporã do Tocantins;1711100;TO;977;899.4;;77.1;0.0;0.5;0.0;0.0;100;2000
218;-9.60105;-68.22547;S 9 36 3.78;O 68 13 31.69;Bujari;1200138;AC;3104;894.2;;2209.1;0.0;0.5;0.0;0.2;100;2000
219;-2.2808200000000003;-49.51546;S 2 16 50.95;O 49 30 55.66;Cametá;1502103;PA;3090;892.4;;1091.3;0.0;0.1;657.9;448.3;100;2000
220;2.29596;-60.53716;N 2 17 45.46;O 60 32 13.78;Cantá;1400175;RR;7715;885.5;;5921.5;0.0;1.3;826.5;80.2;100;2000
221;-2.78735;-56.68566;S 2 47 14.46;O 56 41 8.38;Parintins;1303403;AM;5958;883.3;;1660.3;0.0;0.0;1133.2;2281.2;100;2000
222;-9.63535;-67.65836;S 9 38 7.26;O 67 39 30.10;Porto Acre;1200807;AC;2703;877.7;;1822.5;0.0;2.8;0.0;0.0;100;2000
223;-7.98945;-48.98928;S 7 59 22.02;O 48 59 21.41;Bernardo Sayão;1703206;TO;930;866.5;;49.4;0.0;0.0;0.0;14.1;100;2000
224;-3.94708;-51.35268;S 3 56 49.49;O 51 21 9.65;Anapu;1500859;PA;11910;862.5;;10867.2;0.0;0.0;6.8;173.5;99;2000
225;-14.38974;-56.69911;S 14 23 23.06;O 56 41 56.80;Nortelândia;5106000;MT;1353;859.9;;342.8;0.0;0.0;150.3;0.0;100;2000
226;-10.27172;-55.315819999999995;S 10 16 18.19;O 55 18 56.95;Nova Guarita;5108808;MT;1087;854.7;;231.7;0.0;0.0;0.0;0.6;100;2000
227;-15.60276;-58.05495;S 15 36 9.94;O 58 3 17.82;Mirassol d'Oeste;5105622;MT;1077;851.7;;191.4;0.0;0.1;33.8;0.0;100;2000
228;-13.50574;-60.67742;S 13 30 20.66;O 60 40 38.71;Cabixi;1100031;RO;1322;851.2;;455.2;0.0;0.6;11.3;3.7;99;2000
229;-5.18749;-45.755;S 5 11 14.96;O 45 45 18.00;Itaipava do Grajaú;2105351;MA;1045;849.9;;193.8;0.0;1.3;0.0;0.0;100;2000
230;-3.16475;-53.21731;S 3 9 53.10;O 53 13 2.32;Medicilândia;1504455;PA;8272;848.9;;7420.8;0.4;1.1;0.0;0.8;99;2000
231;-14.44224;-57.21069;S 14 26 32.06;O 57 12 38.48;Santo Afonso;5107263;MT;1172;848.3;;319.3;0.0;0.0;4.4;0.0;99;2000
232;-5.82835;-46.0307;S 5 49 42.06;O 46 1 50.52;Grajaú;2104800;MA;7625;843.1;;2019.8;0.0;0.0;4762.1;0.0;100;2000
233;-9.68593;-62.83526;S 9 41 9.35;O 62 50 6.94;Rio Crespo;1100262;RO;1741;842.9;;874.8;0.0;0.0;23.3;0.0;100;2000
234;-9.42457;-61.08215;S 9 25 28.45;O 61 4 55.74;Colniza;5103254;MT;28123;842.8;;26901.5;0.0;10.8;311.5;56.4;100;2000
235;-3.7627800000000002;-56.01333;S 3 45 46.01;O 56 0 47.99;Aveiro;1501006;PA;17089;833.3;;15516.9;0.0;1.4;18.4;719.0;100;2000
236;-3.25303;-45.97435;S 3 15 10.91;O 45 58 27.66;Zé Doca;2114007;MA;2438;829.7;;1608.0;0.0;0.3;0.0;0.0;100;2000
237;-11.78783;-51.69334;S 11 47 16.19;O 51 41 36.02;Alto Boa Vista;5100359;MT;2241;823.0;;844.2;0.0;0.0;573.8;0.0;99;2000
238;-8.5825;-58.01843;S 8 34 57.00;O 58 1 6.35;Apiacás;5100805;MT;20401;816.1;;18264.9;0.0;3.9;1052.9;263.2;100;2000
239;-1.9181400000000002;-53.4533;S 1 55 5.30;O 53 27 11.88;Prainha;1506005;PA;14785;814.0;;9444.9;0.9;9.7;2964.4;1551.1;100;2000
240;-12.3129;-61.428540000000005;S 12 18 46.44;O 61 25 42.74;Parecis;1101450;RO;2568;813.1;;1271.5;0.0;0.0;483.0;0.4;100;2000
241;-10.36243;-62.072269999999996;S 10 21 44.75;O 62 4 20.17;Vale do Paraíso;1101807;RO;974;807.2;;162.6;0.0;0.0;3.5;0.7;99;2000
242;-7.955589999999999;-72.73617;S 7 57 20.12;O 72 44 10.21;Cruzeiro do Sul;1200203;AC;9202;806.1;;8339.5;0.0;35.7;20.7;0.0;100;2000
243;-7.7248600000000005;-50.13413;S 7 43 29.50;O 50 8 2.87;Pau D'Arco;1505551;PA;1674;804.7;;457.5;0.0;0.1;411.7;0.0;100;2000
244;-16.570970000000003;-54.71462;S 16 34 15.49;O 54 42 52.63;Rondonópolis;5107602;MT;4168;803.3;;293.3;0.0;0.1;3065.7;5.6;99;2000
245;-6.98883;-48.52513;S 6 59 19.79;O 48 31 30.47;Aragominas;1701309;TO;1180;802.9;;348.4;0.0;0.0;18.0;10.7;100;2000
246;-15.671170000000002;-54.80259;S 15 40 16.21;O 54 48 9.32;Dom Aquino;5103601;MT;2208;797.0;;51.3;0.0;0.0;1359.7;0.0;100;2000
247;-7.65097;-48.345240000000004;S 7 39 3.49;O 48 20 42.86;Nova Olinda;1714880;TO;1573;796.9;;16.5;0.0;0.6;759.0;0.0;100;2000
248;-11.88579;-63.10785;S 11 53 8.84;O 63 6 28.26;Seringueiras;1101500;RO;3821;791.7;;2334.3;0.0;0.0;695.0;0.0;100;2000
249;-11.55983;-62.273509999999995;S 11 33 35.39;O 62 16 24.64;Nova Brasilândia D'Oeste;1100148;RO;1167;790.4;;311.5;0.0;0.0;65.1;0.0;100;2000
250;-8.39954;-48.91318;S 8 23 58.34;O 48 54 47.45;Pequizeiro;1716653;TO;1213;790.0;;120.1;0.0;0.0;302.9;0.0;100;2000
251;-11.946639999999999;-54.842240000000004;S 11 56 47.90;O 54 50 32.06;Santa Carmem;5107248;MT;3836;780.3;;3055.7;0.0;0.0;0.0;0.0;100;2000
252;-2.03776;-45.79905;S 2 2 15.94;O 45 47 56.58;Governador Nunes Freire;2104677;MA;1045;774.4;;270.3;0.0;0.3;0.0;0.0;100;2000
253;-3.85236;-45.42994;S 3 51 8.50;O 45 25 47.78;Santa Inês;2109908;MA;778;766.3;;0.0;0.0;0.0;8.6;3.5;100;2000
254;-14.298589999999999;-57.29919;S 14 17 54.92;O 57 17 57.08;Nova Marilândia;5108857;MT;1942;759.5;;618.5;0.0;0.2;563.8;0.0;100;2000
255;-0.21598;-61.060080000000006;S 0 12 57.53;O 61 3 36.29;Rorainópolis;1400472;RR;33847;752.8;;24874.5;0.0;6.0;7642.4;571.3;99;2000
256;-2.34154;-46.11334;S 2 20 29.54;O 46 6 48.02;Centro do Guilherme;2103158;MA;1084;746.5;;337.5;0.0;0.0;0.0;0.0;100;2000
257;-2.42423;-45.954440000000005;S 2 25 27.23;O 45 57 15.98;Maranhãozinho;2106375;MA;981;744.2;;236.8;0.0;0.0;0.0;0.0;100;2000
258;-9.69033;-61.7712;S 9 41 25.19;O 61 46 16.32;Vale do Anari;1101757;RO;3166;739.4;;2396.3;0.0;0.0;11.3;19.0;99;2000
259;-14.67392;-52.44154;S 14 40 26.11;O 52 26 29.54;Nova Xavantina;5106257;MT;5527;734.1;;323.5;0.0;0.0;4443.3;26.1;99;2000
260;-15.49255;-58.729459999999996;S 15 29 33.18;O 58 43 46.06;Figueirópolis D'Oeste;5103809;MT;893;733.7;;53.2;0.0;0.0;106.1;0.0;99;2000
261;-13.18361;-61.20455;S 13 11 1.00;O 61 12 16.38;Cerejeiras;1100056;RO;2805;731.3;;829.3;0.0;0.0;1244.4;0.0;100;2000
262;-1.26528;-47.937129999999996;S 1 15 55.01;O 47 56 13.67;Castanhal;1502400;PA;1034;731.0;;0.0;0.0;1035.6;0.0;1.1;170;2000
263;-8.89352;-48.7444;S 8 53 36.67;O 48 44 39.84;Colméia;1716703;TO;995;723.4;;50.3;0.0;0.5;220.8;0.0;100;2000
264;-6.73568;-48.5563;S 6 44 8.45;O 48 33 22.68;Araguanã;1702158;TO;838;712.6;;97.6;0.0;0.0;12.5;15.3;100;2000
265;-4.03545;-63.534659999999995;S 4 2 7.62;O 63 32 4.78;Coari;1301209;AM;58828;711.1;;54530.6;0.0;1.4;823.1;2761.8;99;2000
266;-0.9960899999999999;-46.42827;S 0 59 45.92;O 46 25 41.77;Augusto Corrêa;1500909;PA;1100;705.9;;311.0;1.9;0.2;4.7;76.3;100;2000
267;-4.12269;-45.124320000000004;S 4 7 21.68;O 45 7 27.55;Olho d'Água das Cunhãs;2107407;MA;704;704.6;;0.0;0.0;0.0;0.0;0.0;100;2000
268;-4.72821;-45.552459999999996;S 4 43 41.56;O 45 33 8.86;Marajá do Sena;2106359;MA;881;701.3;;179.7;0.0;0.0;0.0;0.0;100;2000
269;-10.8794;-68.58788;S 10 52 45.84;O 68 35 16.37;Epitaciolândia;1200252;AC;1703;700.6;;994.2;0.0;8.1;0.0;0.1;100;2000
270;-15.074639999999999;-51.79283;S 15 4 28.70;O 51 47 34.19;Araguaiana;5101001;MT;6422;699.7;;655.4;0.0;18.4;5034.8;13.7;100;2000
271;-3.13292;-57.23915;S 3 7 58.51;O 57 14 20.94;Barreirinha;1300508;AM;5760;699.1;;3696.2;0.0;0.0;408.6;956.1;100;2000
272;-5.1698900000000005;-47.32265;S 5 10 11.60;O 47 19 21.54;São Francisco do Brejão;2110856;MA;751;697.6;;53.4;0.0;0.0;0.0;0.0;100;2000
273;-5.90983;-48.35503;S 5 54 35.39;O 48 21 18.11;Palestina do Pará;1505494;PA;985;689.1;;270.0;0.0;0.0;0.3;25.6;99;2000
274;0.31228;-62.107769999999995;N 0 18 44.21;O 62 6 27.97;Caracaraí;1400209;RR;47818;688.5;;32047.4;7.1;11.2;14489.7;574.1;99;2000
275;-12.08558;-64.18555;S 12 5 8.09;O 64 11 7.98;Costa Marques;1100080;RO;5058;687.0;;3741.1;0.0;50.2;558.9;20.8;99;2000
276;-10.764289999999999;-51.59043;S 10 45 51.44;O 51 35 25.55;Porto Alegre do Norte;5106778;MT;3982;685.5;;850.6;0.0;0.0;2445.9;0.0;99;2000
277;-15.883920000000002;-55.124140000000004;S 15 53 2.11;O 55 7 26.90;Jaciara;5104807;MT;1657;683.4;;14.9;0.0;0.0;958.7;0.0;100;2000
278;-11.68822;-62.0845;S 11 41 17.59;O 62 5 4.20;Novo Horizonte do Oeste;1100502;RO;852;679.7;;167.7;0.0;0.0;4.6;0.0;100;2000
279;-1.55275;-47.62771;S 1 33 9.90;O 47 37 39.76;São Miguel do Guamá;1507607;PA;1117;678.9;;0.0;0.0;1117.5;15.2;32.2;165;2000
280;-11.159410000000001;-61.58328;S 11 9 33.88;O 61 34 59.81;Ministro Andreazza;1101203;RO;804;676.7;;127.3;0.0;0.0;0.0;0.0;100;2000
281;-5.4417;-48.67711;S 5 26 30.12;O 48 40 37.60;São João do Araguaia;1507508;PA;1288;673.9;;424.4;0.0;0.0;73.7;116.0;100;2000
282;-3.24702;-54.936859999999996;S 3 14 49.27;O 54 56 12.70;Belterra;1501451;PA;4399;673.4;;3120.1;0.0;0.0;0.0;605.5;100;2000
283;-4.91226;-45.416959999999996;S 4 54 44.14;O 45 25 1.06;Lagoa Grande do Maranhão;2105963;MA;741;668.9;;72.1;0.0;0.0;0.0;0.0;100;2000
284;-10.455860000000001;-67.86778000000001;S 10 27 21.10;O 67 52 4.01;Capixaba;1200179;AC;1760;667.2;;1086.4;0.0;6.4;0.0;0.0;99;2000
285;-11.43746;-61.89399;S 11 26 14.86;O 61 53 38.36;Castanheiras;1100908;RO;901;665.3;;232.6;0.0;0.0;0.6;2.5;100;2000
286;-8.06639;-48.53996;S 8 3 59.00;O 48 32 23.86;Colinas do Tocantins;1705508;TO;847;656.8;;9.7;0.0;0.6;179.9;0.0;100;2000
287;-5.28901;-44.46201;S 5 17 20.44;O 44 27 43.24;Presidente Dutra;2109106;MA;805;656.5;;148.3;0.0;0.0;0.1;0.1;99;2000
288;-4.3794699999999995;-44.64014;S 4 22 46.09;O 44 38 24.50;São Luís Gonzaga do Maranhão;2111409;MA;981;643.5;;0.0;0.0;564.3;1.7;0.0;123;2000
289;-9.12763;-62.53091;S 9 7 39.47;O 62 31 51.28;Cujubim;1100940;RO;3904;641.8;;3259.9;0.0;0.2;0.0;2.1;100;2000
290;-9.954239999999999;-66.87906;S 9 57 15.26;O 66 52 44.62;Acrelândia;1200013;AC;1880;640.3;;1237.5;0.0;2.2;0.0;0.0;100;2000
291;-11.11448;-62.45596;S 11 6 52.13;O 62 27 21.46;Urupá;1101708;RO;841;639.4;;103.9;0.0;0.0;97.7;0.0;100;2000
292;-10.891060000000001;-62.52925;S 10 53 27.82;O 62 31 45.30;Nova União;1101435;RO;815;635.3;;175.6;0.0;0.1;4.0;0.0;100;2000
293;-9.13212;-63.1238;S 9 7 55.63;O 63 7 25.68;Itapuã do Oeste;1101104;RO;4132;634.5;;3287.6;0.0;0.3;2.5;207.1;100;2000
294;-3.27671;-60.711780000000005;S 3 16 36.16;O 60 42 42.41;Manacapuru;1302504;AM;7381;633.3;;4519.0;0.0;0.1;805.6;1423.0;99;2000
295;-9.461889999999999;-58.634409999999995;S 9 27 42.80;O 58 38 3.88;Cotriguaçu;5103379;MT;9527;599.2;;8678.6;0.0;0.1;116.0;133.1;100;2000
296;-11.39761;-57.2737;S 11 23 51.40;O 57 16 25.32;Novo Horizonte do Norte;5106273;MT;909;598.1;;303.6;0.0;0.0;0.0;7.3;99;2000
297;-10.392510000000001;-58.609359999999995;S 10 23 33.04;O 58 36 33.70;Juruena;5105176;MT;2826;596.4;;2138.0;0.0;0.0;66.5;25.1;99;2000
298;-4.770980000000001;-44.8038;S 4 46 15.53;O 44 48 13.68;Poção de Pedras;2108900;MA;663;588.9;;0.0;0.0;196.0;0.2;0.0;118;2000
299;-1.1742299999999999;-47.576190000000004;S 1 10 27.23;O 47 34 34.28;Igarapé-Açu;1503200;PA;789;585.3;;0.0;0.0;789.9;6.0;1.2;175;2000
300;-1.36295;-45.55652;S 1 21 46.62;O 45 33 23.47;Cândido Mendes;2102606;MA;1635;585.0;;889.3;0.6;0.7;79.8;79.6;100;2000
301;-5.1062;-55.93385;S 5 6 22.32;O 55 56 1.86;Trairão;1508050;PA;11997;576.0;;11317.7;0.0;0.2;1.1;102.0;100;2000
302;-1.24815;-45.9977;S 1 14 53.34;O 45 59 51.72;Carutapera;2102903;MA;1239;574.9;;470.5;1.0;0.5;112.8;79.3;99;2000
303;-15.02325;-58.956559999999996;S 15 1 23.70;O 58 57 23.62;Vale de São Domingos;5108352;MT;1913;574.3;;527.4;0.0;0.2;811.1;0.0;100;2000
304;-5.5122;-47.09218;S 5 30 43.92;O 47 5 31.85;Buritirana;2102358;MA;824;573.4;;236.7;0.0;0.0;13.9;0.0;100;2000
305;-1.87841;-47.974920000000004;S 1 52 42.28;O 47 58 29.71;Concórdia do Pará;1502756;PA;695;570.7;;0.0;0.0;694.3;0.0;0.3;182;2000
306;-7.477180000000001;-57.604319999999994;S 7 28 37.85;O 57 36 15.55;Jacareacanga;1503754;PA;53397;568.8;;46896.8;0.0;8.8;5213.1;709.5;100;2000
307;-3.79728;-49.8067;S 3 47 50.21;O 49 48 24.12;Tucuruí;1508100;PA;2095;563.4;;1048.8;0.0;0.0;4.7;478.1;99;2000
308;-5.2397599999999995;-47.1731;S 5 14 23.14;O 47 10 23.16;João Lisboa;2105500;MA;638;562.3;;74.9;0.0;0.8;0.0;0.0;99;2000
309;-15.32895;-58.60376;S 15 19 44.22;O 58 36 13.54;Indiavaí;5104500;MT;601;556.8;;44.1;0.0;0.1;0.0;0.0;100;2000
310;-14.61969;-59.313159999999996;S 14 37 10.88;O 59 18 47.38;Conquista D'Oeste;5103361;MT;2707;548.2;;840.4;0.0;2.1;1316.3;0.0;100;2000
311;-11.04481;-62.80644;S 11 2 41.32;O 62 48 23.18;Mirante da Serra;1101302;RO;1205;547.7;;442.9;0.0;0.1;214.3;0.0;100;2000
312;-4.41301;-65.57764;S 4 24 46.84;O 65 34 39.50;Tefé;1304203;AM;24186;543.7;;22746.9;0.0;1.8;168.9;724.7;100;2000
313;-4.14425;-45.4663;S 4 8 39.30;O 45 27 58.68;Altamira do Maranhão;2100402;MA;542;542.5;;0.0;0.0;0.0;0.0;0.0;100;2000
314;-14.54069;-54.66186999999999;S 14 32 26.48;O 54 39 42.73;Planalto da Serra;5106455;MT;2452;542.5;;53.5;0.0;0.2;1855.8;0.0;100;2000
315;-1.65367;-48.05474;S 1 39 13.21;O 48 3 17.06;Bujaru;1501907;PA;1010;542.5;;0.0;0.0;1010.1;11.8;59.3;160;2000
316;0.9453799999999999;-59.32614;N 0 56 43.37;O 59 19 34.10;Caroebe;1400233;RR;12120;537.3;;11477.1;1.6;8.0;12.8;83.2;100;2000
317;-6.83379;-60.23604;S 6 50 1.64;O 60 14 9.74;Novo Aripuanã;1303304;AM;41452;534.7;;38526.6;0.0;27.9;1620.2;742.6;100;2000
318;-7.510839999999999;-62.5992;S 7 30 39.02;O 62 35 57.12;Humaitá;1301704;AM;33428;534.6;;28990.8;0.0;2.1;3116.3;784.2;100;2000
319;-3.9823;-44.90035;S 3 58 56.28;O 44 54 1.26;Lago Verde;2105906;MA;631;534.1;;0.1;0.0;0.0;82.4;14.4;100;2000
320;-1.88885;-46.11298;S 1 53 19.86;O 46 6 46.73;Junco do Maranhão;2105658;MA;560;531.8;;26.9;0.0;0.0;0.0;1.3;99;2000
321;-3.79264;-44.82907;S 3 47 33.50;O 44 49 44.65;Conceição do Lago-Açu;2103554;MA;742;531.0;;0.0;0.0;0.1;98.7;113.0;100;2000
322;-6.3838;-47.26834;S 6 23 1.68;O 47 16 6.02;Porto Franco;2109007;MA;1427;525.6;;125.0;0.0;0.1;760.7;15.6;100;2000
323;-0.65847;-60.17004;S 0 39 30.49;O 60 10 12.14;Presidente Figueiredo;1303536;AM;25568;524.8;;21614.9;0.0;5.4;1.1;3421.8;99;2000
324;-4.96265;-48.394059999999996;S 4 57 45.54;O 48 23 38.62;Abel Figueiredo;1500131;PA;616;524.8;;91.0;0.0;0.2;0.0;0.0;99;2000
325;-1.9971;-45.9871;S 1 59 49.56;O 45 59 13.56;Maracaçumé;2106326;MA;635;517.8;;117.2;0.0;0.0;0.0;0.0;100;2000
326;-11.535960000000001;-54.3507;S 11 32 9.46;O 54 21 2.52;União do Sul;5108303;MT;4583;510.2;;4048.0;0.0;2.1;22.7;0.0;100;2000
327;-2.50853;-59.60122;S 2 30 30.71;O 59 36 4.39;Rio Preto da Eva;1303569;AM;5838;500.6;;5326.0;0.0;1.1;0.0;10.3;100;2000
328;3.10387;-62.61311;N 3 6 13.93;O 62 36 47.20;Alto Alegre;1400050;RR;25869;496.4;;22555.4;0.0;113.1;2610.3;93.8;100;2000
329;-5.66656;-44.31635;S 5 39 59.62;O 44 18 58.86;São Domingos do Maranhão;2110708;MA;1168;481.8;;593.9;0.0;0.0;92.3;0.0;100;2000
330;-3.8712;-45.08068;S 3 52 16.32;O 45 4 50.45;Pio XII;2108702;MA;550;479.0;;0.0;0.0;0.0;48.0;23.6;100;2000
331;-13.78307;-55.28771999999999;S 13 46 59.05;O 55 17 15.79;Santa Rita do Trivelato;5107768;MT;4756;478.1;;870.8;0.0;0.0;3407.1;0.0;100;2000
332;-11.91634;-61.45463;S 11 54 58.82;O 61 27 16.67;São Felipe D'Oeste;1101484;RO;547;471.7;;75.3;0.0;0.0;0.0;0.0;100;2000
333;-12.14354;-56.73935;S 12 8 36.74;O 56 44 21.66;Itanhangá;5104542;MT;2927;471.4;;2451.4;0.0;0.0;0.0;4.2;100;2000
334;-2.5495;-49.35737;S 2 32 58.20;O 49 21 26.53;Mocajuba;1504604;PA;872;470.5;;158.4;0.0;0.0;168.2;74.9;100;2000
335;-5.33176;-59.23777;S 5 19 54.34;O 59 14 15.97;Borba;1300805;AM;44452;465.1;;41548.7;0.0;13.0;586.5;1838.7;100;2000
336;-1.18797;-47.12751;S 1 11 16.69;O 47 7 39.04;Capanema;1502202;PA;619;463.5;;0.0;0.0;491.9;29.5;2.4;159;2000
337;2.1801;-61.668240000000004;N 2 10 48.36;O 61 40 5.66;Iracema;1400282;RR;14271;459.1;;13677.6;0.0;91.4;35.5;7.4;100;2000
338;-3.98602;-44.504220000000004;S 3 59 9.67;O 44 30 15.19;São Mateus do Maranhão;2111508;MA;793;456.5;;0.0;0.0;552.0;106.9;8.9;141;2000
339;-3.73889;-60.655519999999996;S 3 44 20.00;O 60 39 19.87;Manaquiri;1302553;AM;4001;453.4;;3154.2;0.0;0.0;106.3;287.1;100;2000
340;-4.2986699999999995;-45.09405;S 4 17 55.21;O 45 5 38.58;Bom Lugar;2102077;MA;451;451.8;;0.0;0.0;0.0;0.0;0.0;100;2000
341;-0.92904;-46.93052;S 0 55 44.54;O 46 55 49.87;Tracuateua;1508035;PA;858;451.6;;178.3;0.0;18.5;188.8;20.8;99;2000
342;-7.45596;-63.90278000000001;S 7 27 21.46;O 63 54 10.01;Canutama;1300904;AM;30278;451.2;;28536.2;0.0;5.5;988.3;296.8;100;2000
343;-4.9173599999999995;-44.90586;S 4 55 2.50;O 44 54 21.10;Esperantinópolis;2104008;MA;486;449.6;;0.0;0.0;75.5;0.4;0.0;108;2000
344;-1.36752;-48.12871;S 1 22 3.07;O 48 7 43.36;Santa Isabel do Pará;1506500;PA;720;447.2;;0.0;0.0;719.6;4.1;20.8;165;2000
345;-15.281410000000001;-58.151759999999996;S 15 16 53.08;O 58 9 6.34;Rio Branco;5107206;MT;529;444.8;;11.5;0.0;0.5;72.2;0.0;99;2000
346;-5.1386400000000005;-48.3445;S 5 8 19.10;O 48 20 40.20;São Pedro da Água Branca;2111532;MA;725;441.7;;52.4;0.0;0.9;207.9;22.1;100;2000
347;-2.62095;-50.99664;S 2 37 15.42;O 50 59 47.90;Portel;1505809;PA;25425;433.8;;23758.6;0.4;0.4;385.9;845.9;100;2000
348;-5.0114;-44.774570000000004;S 5 0 41.04;O 44 46 28.45;Joselândia;2105609;MA;691;431.9;;103.6;0.0;142.9;0.2;12.4;99;2000
349;-2.3858200000000003;-49.92558;S 2 23 8.95;O 49 55 32.09;Oeiras do Pará;1505205;PA;3863;425.7;;2765.4;0.0;0.3;377.7;293.9;100;2000
350;-6.47515;-48.088809999999995;S 6 28 30.54;O 48 5 19.72;Riachinho;1718550;TO;520;424.3;;76.4;0.0;0.5;18.8;0.0;100;2000
351;-1.08094;-58.4439;S 1 4 51.38;O 58 26 38.04;Nhamundá;1303007;AM;14132;421.7;;12256.2;0.0;1.9;344.4;1107.8;100;2000
352;-10.9319;-62.2591;S 10 55 54.84;O 62 15 32.76;Teixeirópolis;1101559;RO;464;421.3;;42.7;0.0;0.0;0.0;0.0;100;2000
353;-5.96305;-47.31957;S 5 57 46.98;O 47 19 10.45;Ribamar Fiquene;2109551;MA;755;412.7;;82.1;0.0;0.0;244.7;15.5;99;2000
354;-14.76893;-56.62505;S 14 46 8.15;O 56 37 30.18;Alto Paraguai;5100508;MT;2055;407.0;;140.0;0.0;0.0;1508.0;0.0;100;2000
355;-14.142;-57.21209;S 14 8 31.20;O 57 12 43.52;Diamantino;5103502;MT;8135;404.9;;2011.6;0.0;1.1;5717.4;0.0;100;2000
356;-11.90772;-61.30165;S 11 54 27.79;O 61 18 5.94;Primavera de Rondônia;1101476;RO;610;402.8;;113.1;0.0;0.0;93.6;0.5;99;2000
357;-9.08579;-48.578340000000004;S 9 5 8.84;O 48 34 42.02;Fortaleza do Tabocão;1708254;TO;624;402.4;;2.0;0.0;0.0;219.6;0.0;99;2000
358;-1.48763;-47.12672;S 1 29 15.47;O 47 7 36.19;Ourém;1505403;PA;565;397.8;;0.0;0.0;286.4;1.4;0.3;121;2000
359;-1.39347;-47.31005;S 1 23 36.49;O 47 18 36.18;Bonito;1501600;PA;590;391.4;;0.0;0.0;590.9;0.0;0.0;166;2000
360;-13.047419999999999;-56.1822;S 13 2 50.71;O 56 10 55.92;Lucas do Rio Verde;5105259;MT;3662;390.9;;776.3;0.0;0.0;2494.8;0.0;100;2000
361;-2.8509900000000004;-58.496140000000004;S 2 51 3.56;O 58 29 46.10;Silves;1304005;AM;3758;389.2;;2641.4;0.0;0.0;128.7;598.7;100;2000
362;0.84851;-60.14343;N 0 50 54.64;O 60 8 36.35;São Luiz;1400605;RR;1537;386.7;;1148.1;0.0;0.1;0.0;2.1;100;2000
363;-6.1772;-47.239329999999995;S 6 10 37.92;O 47 14 21.59;Campestre do Maranhão;2102556;MA;618;380.1;;73.9;0.0;0.0;154.3;9.7;100;2000
364;-4.58244;-44.84341;S 4 34 56.78;O 44 50 36.28;Igarapé Grande;2105203;MA;379;379.9;;0.0;0.0;0.0;0.0;0.0;100;2000
365;-1.9896900000000002;-47.50665;S 1 59 22.88;O 47 30 23.94;Mãe do Rio;1504059;PA;471;377.2;;0.0;0.0;471.9;0.0;1.4;180;2000
366;-5.52161;-47.92406;S 5 31 17.80;O 47 55 26.62;Augustinópolis;1702554;TO;397;371.4;;25.0;0.0;0.1;0.5;0.0;100;2000
367;-3.3047699999999995;-59.555969999999995;S 3 18 17.17;O 59 33 21.49;Careiro da Várzea;1301159;AM;2641;368.4;;936.6;0.0;0.2;707.8;628.0;100;2000
368;-2.52815;-45.77625;S 2 31 41.34;O 45 46 34.50;Santa Luzia do Paruá;2110039;MA;908;367.7;;509.5;0.0;0.3;30.5;0.0;100;2000
369;-3.40023;-45.89428;S 3 24 0.83;O 45 53 39.41;Governador Newton Bello;2104651;MA;1173;367.7;;805.2;0.0;0.1;0.0;0.0;100;2000
370;-4.39135;-45.56852;S 4 23 28.86;O 45 34 6.67;Brejo de Areia;2102150;MA;365;365.1;;0.0;0.0;0.0;0.0;0.0;100;2000
371;-15.100060000000001;-55.49593;S 15 6 0.22;O 55 29 45.35;Chapada dos Guimarães;5103007;MT;6250;363.1;;169.5;0.0;1.7;5516.4;199.3;100;2000
372;-5.15411;-44.17192;S 5 9 14.80;O 44 10 18.91;Gonçalves Dias;2104404;MA;888;362.8;;397.6;0.0;127.6;0.0;0.0;100;2000
373;-15.532;-57.21941999999999;S 15 31 55.20;O 57 13 9.91;Porto Estrela;5106851;MT;2068;359.3;;246.3;0.0;0.0;1462.4;0.0;100;2000
374;-4.02487;-58.586330000000004;S 4 1 29.53;O 58 35 10.79;Nova Olinda do Norte;1303106;AM;5625;359.2;;4553.5;0.0;0.3;281.0;431.0;100;2000
375;-7.85728;-73.21253;S 7 51 26.21;O 73 12 45.11;Rodrigues Alves;1200427;AC;3246;357.5;;2835.8;0.0;52.0;0.7;0.0;99;2000
376;-3.5971;-46.537440000000004;S 3 35 49.56;O 46 32 14.78;São João do Carú;2111029;MA;620;356.8;;263.2;0.0;0.0;0.0;0.0;100;2000
377;-3.9388900000000002;-45.26408;S 3 56 20.00;O 45 15 50.69;Satubinha;2111722;MA;447;356.2;;0.0;0.0;0.0;86.7;4.4;100;2000
378;-14.5036;-56.87307;S 14 30 12.96;O 56 52 23.05;Arenápolis;5101308;MT;414;352.1;;61.9;0.0;0.0;0.0;0.0;100;2000
379;-3.0859099999999997;-60.66479;S 3 5 9.28;O 60 39 53.24;Iranduba;1301852;AM;2229;342.1;;1450.2;0.0;0.0;132.9;303.8;99;2000
380;-1.20761;-47.74858;S 1 12 27.40;O 47 44 54.89;São Francisco do Pará;1507409;PA;480;340.0;;0.0;0.0;480.9;1.3;0.1;171;2000
381;-3.74966;-44.45678;S 3 44 58.78;O 44 27 24.41;Matões do Norte;2106631;MA;793;337.7;;0.0;0.0;574.4;4.6;0.8;115;2000
382;-0.80045;-47.75464;S 0 48 1.62;O 47 45 16.70;Marapanim;1504406;PA;795;336.5;;0.0;0.0;558.0;41.6;48.9;123;2000
383;-8.46487;-48.4769;S 8 27 53.53;O 48 28 36.84;Presidente Kennedy;1718402;TO;774;334.3;;108.4;0.0;0.6;330.7;0.0;100;2000
384;-5.94912;-47.79323;S 5 56 56.83;O 47 47 35.63;São Bento do Tocantins;1720101;TO;1112;333.8;;92.1;0.0;1.4;684.7;0.0;100;2000
385;-7.251580000000001;-72.74345;S 7 15 5.69;O 72 44 36.42;Guajará;1301654;AM;7984;329.9;;7440.0;0.0;0.0;206.9;7.2;100;2000
386;0.77051;-59.92018;N 0 46 13.84;O 59 55 12.65;São João da Baliza;1400506;RR;4305;329.4;;3969.7;0.0;0.1;0.4;5.4;100;2000
387;-1.36579;-47.53045;S 1 21 56.84;O 47 31 49.62;Santa Maria do Pará;1506609;PA;460;325.9;;0.0;0.0;460.3;0.0;0.0;170;2000
388;-5.78728;-47.60538;S 5 47 14.21;O 47 36 19.37;Itaguatins;1710706;TO;745;321.8;;102.3;0.0;0.0;310.0;10.9;99;2000
389;-1.16917;-47.4053;S 1 10 9.01;O 47 24 19.08;Nova Timboteua;1505007;PA;492;320.5;;0.0;0.0;493.0;19.5;4.0;170;2000
390;-9.39541;-48.66686;S 9 23 43.48;O 48 40 0.70;Miranorte;1713304;TO;1036;315.0;;12.5;0.0;0.0;708.5;0.0;100;2000
391;-4.57135;-45.01907;S 4 34 16.86;O 45 1 8.65;Lago do Junco;2105807;MA;312;312.4;;0.0;0.0;0.0;0.0;0.0;100;2000
392;-7.451410000000001;-73.41241;S 7 27 5.08;O 73 24 44.68;Mâncio Lima;1200336;AC;5762;311.9;;5262.2;0.0;142.8;45.1;0.0;100;2000
393;-5.54593;-47.56455;S 5 32 45.35;O 47 33 52.38;São Miguel do Tocantins;1720200;TO;400;307.0;;76.0;0.0;0.0;4.2;12.8;100;2000
394;-1.12505;-47.2721;S 1 7 30.18;O 47 16 19.56;Peixe-Boi;1505601;PA;454;305.5;;0.0;0.0;454.7;17.1;3.7;172;2000
395;-15.96819;-54.74813;S 15 58 5.48;O 54 44 53.27;São Pedro da Cipa;5107404;MT;343;305.3;;6.7;0.0;0.0;31.0;0.0;100;2000
396;-1.24938;-58.78714;S 1 14 57.77;O 58 47 13.70;Urucará;1304302;AM;28012;299.2;;26642.5;0.0;0.9;423.0;646.4;100;2000
397;-16.75732;-56.01455;S 16 45 26.35;O 56 0 52.38;Barão de Melgaço;5101605;MT;11187;298.7;;2272.7;0.0;12.9;8493.6;109.1;100;2000
398;-7.0374;-48.37437;S 7 2 14.64;O 48 22 27.73;Carmolândia;1703883;TO;340;297.9;;42.0;0.0;0.1;0.0;0.0;100;2000
399;-6.23192;-47.554190000000006;S 6 13 54.91;O 47 33 15.08;Tocantinópolis;1721208;TO;1085;291.3;;144.8;0.0;0.0;624.0;24.9;100;2000
400;-15.86948;-58.262280000000004;S 15 52 10.13;O 58 15 44.21;Glória D'Oeste;5103957;MT;849;290.4;;52.1;0.0;0.0;506.5;0.0;100;2000
401;-7.0407399999999996;-70.12601;S 7 2 26.66;O 70 7 33.64;Eirunepé;1301407;AM;15608;287.1;;14961.8;0.0;5.3;172.1;181.7;99;2000
402;-15.62296;-57.874880000000005;S 15 37 22.66;O 57 52 29.57;Curvelândia;5103437;MT;362;286.3;;38.4;0.0;0.2;37.1;0.0;100;2000
403;-1.7829700000000002;-55.10334;S 1 46 58.69;O 55 6 12.02;Curuá;1502855;PA;1430;285.9;;403.8;0.0;0.6;272.6;467.1;99;2000
404;-1.90481;-56.474180000000004;S 1 54 17.32;O 56 28 27.05;Terra Santa;1507979;PA;1900;285.5;;836.8;0.0;0.2;388.1;389.4;100;2000
405;-15.888;-58.84338;S 15 53 16.80;O 58 50 36.17;Porto Esperidião;5106828;MT;5833;285.4;;299.6;0.0;6.5;5241.5;0.0;100;2000
406;-1.4552200000000002;-47.89865;S 1 27 18.79;O 47 53 55.14;Inhangapi;1503408;PA;476;283.8;;0.0;0.0;475.4;6.8;25.2;166;2000
407;-6.88444;-47.99094;S 6 53 3.98;O 47 59 27.38;Wanderlândia;1722081;TO;1382;282.1;;179.1;0.0;0.0;920.8;0.0;100;2000
408;-5.64773;-47.65314;S 5 38 51.83;O 47 39 11.30;Sítio Novo do Tocantins;1720804;TO;325;281.1;;43.9;0.0;0.0;0.0;0.0;100;2000
409;-5.10345;-45.06812;S 5 6 12.42;O 45 4 5.23;São Raimundo do Doca Bezerra;2111631;MA;284;279.6;;4.1;0.0;0.3;0.0;0.0;100;2000
410;-1.7692900000000003;-46.20581;S 1 46 9.44;O 46 12 20.92;Boa Vista do Gurupi;2101970;MA;407;279.5;;121.9;0.0;0.1;0.0;5.5;99;2000
411;-1.22159;-45.82058;S 1 13 17.72;O 45 49 14.09;Luís Domingues;2106201;MA;464;279.0;;158.6;0.0;0.1;4.3;22.0;100;2000
412;-4.8128;-44.4809;S 4 48 46.08;O 44 28 51.24;Santo Antônio dos Lopes;2110302;MA;781;278.6;;0.0;0.0;781.9;0.0;0.0;135;2000
413;-5.72674;-47.31239;S 5 43 36.26;O 47 18 44.60;Governador Edison Lobão;2104552;MA;619;274.7;;30.7;0.0;0.0;299.3;14.3;100;2000
414;-5.5833699999999995;-47.31469;S 5 35 0.13;O 47 18 52.88;Davinópolis;2103752;MA;339;271.1;;67.9;0.0;0.0;0.0;0.0;100;2000
415;-14.933810000000001;-58.50079;S 14 56 1.72;O 58 30 2.84;Reserva do Cabaçal;5107156;MT;1342;269.1;;363.0;0.0;0.0;709.9;0.0;100;2000
416;-5.93398;-65.97188;S 5 56 2.33;O 65 58 18.77;Tapauá;1304104;AM;90962;266.7;;87030.9;0.0;1.9;2161.1;1501.4;100;2000
417;-6.32397;-47.781659999999995;S 6 19 26.29;O 47 46 53.98;Nazaré;1714302;TO;398;266.0;;48.9;0.0;0.0;83.1;0.0;100;2000
418;-0.80608;-47.47954;S 0 48 21.89;O 47 28 46.34;Maracanã;1504307;PA;860;258.6;;0.0;0.0;516.5;33.2;121.4;108;2000
419;-3.67425;-65.34586;S 3 40 27.30;O 65 20 45.10;Alvarães;1300029;AM;6027;258.3;;5603.1;0.0;0.0;38.0;127.6;100;2000
420;-1.09607;-48.14127;S 1 5 45.85;O 48 8 28.57;Santo Antônio do Tauá;1507003;PA;540;258.3;;0.0;0.0;540.4;6.8;96.9;167;2000
421;-5.17242;-67.49476;S 5 10 20.71;O 67 29 41.14;Carauari;1301001;AM;26469;258.2;;25791.1;0.0;7.1;12.7;399.9;100;2000
422;-14.39797;-55.787369999999996;S 14 23 52.69;O 55 47 14.53;Nobres;5105903;MT;3765;254.3;;331.0;0.0;0.0;3179.7;0.0;99;2000
423;-1.6564900000000002;-45.937490000000004;S 1 39 23.36;O 45 56 14.96;Amapá do Maranhão;2100550;MA;507;254.0;;253.0;0.0;0.0;0.0;0.0;100;2000
424;-3.77524;-44.16935;S 3 46 30.86;O 44 10 9.66;Pirapemas;2108801;MA;698;253.3;;0.0;0.0;697.0;0.0;0.0;136;2000
425;-2.9472400000000003;-45.95551;S 2 56 50.06;O 45 57 19.84;Nova Olinda do Maranhão;2107357;MA;2479;250.7;;2227.8;0.0;0.5;0.0;0.0;100;2000
426;-3.7701300000000004;-45.57549;S 3 46 12.47;O 45 34 31.76;Tufilândia;2112274;MA;274;249.0;;0.0;0.0;0.0;25.0;0.0;100;2000
427;0.58849;-50.962309999999995;N 0 35 18.56;O 50 57 44.32;Macapá;1600303;AP;6419;244.5;;2080.5;21.1;1.9;3119.5;951.5;100;2000
428;-1.2833;-45.6723;S 1 16 59.88;O 45 40 20.28;Godofredo Viana;2104305;MA;684;241.2;;340.8;0.7;0.2;28.0;73.1;99;2000
429;-12.06992;-51.31397;S 12 4 11.71;O 51 18 50.29;Serra Nova Dourada;5107883;MT;1491;239.7;;288.6;0.0;0.0;962.7;0.0;100;2000
430;-5.01499;-44.55154;S 5 0 53.96;O 44 33 5.54;São José dos Basílios;2111250;MA;366;239.0;;32.5;0.0;81.8;0.0;12.7;100;2000
431;-6.10131;-46.95503;S 6 6 4.72;O 46 57 18.11;Lajeado Novo;2105989;MA;1054;238.9;;34.8;0.0;0.0;780.3;0.0;100;2000
432;-3.12907;-63.20401;S 3 7 44.65;O 63 12 14.44;Codajás;1301308;AM;18944;235.7;;16535.8;0.0;2.5;729.2;1440.8;100;2000
433;-6.4398800000000005;-46.90735;S 6 26 23.57;O 46 54 26.46;São João do Paraíso;2111052;MA;2070;234.7;;39.7;0.0;0.8;1794.8;0.0;100;2000
434;-4.41293;-44.28022;S 4 24 46.55;O 44 16 48.79;Peritoró;2108454;MA;836;232.2;;0.0;0.0;757.8;0.0;0.0;118;2000
435;-5.02229;-45.0238;S 5 1 20.24;O 45 1 25.68;São Roberto;2111672;MA;229;229.7;;0.0;0.0;0.0;0.0;0.0;100;2000
436;-2.30799;-45.7641;S 2 18 28.76;O 45 45 50.76;Presidente Médici;2109239;MA;441;226.8;;213.9;0.0;0.3;0.0;0.0;100;2000
437;-1.44539;-48.637029999999996;S 1 26 43.40;O 48 38 13.31;Barcarena;1501303;PA;1316;226.4;;0.0;0.0;937.9;1.9;527.7;128;2000
438;-9.37187;-49.8481;S 9 22 18.73;O 49 50 53.16;Caseara;1703909;TO;1697;223.6;;360.2;0.0;0.1;1079.1;34.0;100;2000
439;-8.27327;-48.46058;S 8 16 23.77;O 48 27 38.09;Brasilândia do Tocantins;1703602;TO;643;216.6;;7.1;0.0;0.2;419.1;0.0;100;2000
440;-1.27265;-48.500240000000005;S 1 16 21.54;O 48 30 0.86;Belém;1501402;PA;1070;216.5;;0.0;0.0;1071.1;7.1;581.3;175;2000
441;-5.34998;-48.15082;S 5 20 59.93;O 48 9 2.95;Buriti do Tocantins;1703800;TO;250;212.5;;2.7;0.0;0.0;29.0;5.8;99;2000
442;-3.6499599999999996;-44.30194;S 3 38 59.86;O 44 18 6.98;Cantanhede;2102705;MA;783;211.1;;0.0;0.0;756.3;4.6;0.0;124;2000
443;-0.70617;-47.85268;S 0 42 22.21;O 47 51 9.65;Curuçá;1502905;PA;675;209.6;;0.0;0.0;407.5;0.9;69.0;101;2000
444;0.61343;-51.7237;N 0 36 48.35;O 51 43 25.32;Porto Grande;1600535;AP;4407;208.8;;3438.9;78.7;21.4;639.8;19.4;100;2000
445;-4.68617;-44.31678;S 4 41 10.21;O 44 19 0.41;Capinzal do Norte;2102754;MA;598;208.4;;0.0;0.0;635.5;0.0;0.0;141;2000
446;-3.0546;-61.93934;S 3 3 16.56;O 61 56 21.62;Caapiranga;1300839;AM;9550;203.1;;8737.3;0.0;0.1;181.9;427.6;100;2000
447;-8.130980000000001;-49.09587;S 8 7 51.53;O 49 5 45.13;Juarina;1711803;TO;482;202.4;;21.0;0.0;0.0;236.9;21.7;100;2000
448;-8.43754;-49.16992;S 8 26 15.14;O 49 10 11.71;Couto Magalhães;1706001;TO;1591;200.3;;121.1;0.0;0.0;1230.2;39.4;100;2000
449;-3.7049;-45.47687;S 3 42 17.64;O 45 28 36.73;Pindaré-Mirim;2108504;MA;275;199.2;;3.0;0.0;0.1;52.8;19.9;100;2000
450;-5.31119;-48.495709999999995;S 5 18 40.28;O 48 29 44.56;Esperantina;1707405;TO;505;196.9;;31.2;0.0;0.0;227.5;49.4;100;2000
451;-4.60648;-44.9469;S 4 36 23.33;O 44 56 48.84;Lago dos Rodrigues;2105948;MA;196;196.8;;0.0;0.0;0.0;0.0;0.0;100;2000
452;-5.67098;-71.72825;S 5 40 15.53;O 71 43 41.70;Atalaia do Norte;1300201;AM;80005;196.1;;79082.5;0.0;314.0;16.5;395.9;99;2000
453;-5.4885;-47.7858;S 5 29 18.60;O 47 47 8.88;Praia Norte;1718303;TO;291;196.0;;56.2;0.0;0.0;29.5;9.3;100;2000
454;-3.20648;-65.43058;S 3 12 23.33;O 65 25 50.09;Uarini;1304260;AM;10448;194.2;;9721.7;0.0;0.0;100.3;431.8;99;2000
455;-4.66641;-44.682759999999995;S 4 39 59.08;O 44 40 57.94;Bernardo do Mearim;2101939;MA;264;190.3;;0.0;0.0;168.6;0.0;0.0;135;2000
456;-1.10869;-57.80093000000001;S 1 6 31.28;O 57 48 3.35;Faro;1503002;PA;11794;187.7;;11337.2;0.0;0.4;87.6;181.1;100;2000
457;-0.25129;-64.98731;S 0 15 4.64;O 64 59 14.32;Santa Isabel do Rio Negro;1303601;AM;64130;186.6;;62250.9;42.5;70.9;950.8;628.3;100;2000
458;-15.4248;-55.01614;S 15 25 29.28;O 55 0 58.10;Campo Verde;5102678;MT;4794;186.0;;62.9;0.0;0.9;4544.2;0.0;100;2000
459;-6.42281;-47.897009999999995;S 6 25 22.12;O 47 53 49.24;Angico;1701051;TO;453;184.2;;45.6;0.0;0.6;222.6;0.0;100;2000
460;-3.15669;-57.90464;S 3 9 24.08;O 57 54 16.70;Boa Vista do Ramos;1300680;AM;2588;182.8;;1146.7;0.0;0.0;852.8;405.7;100;2000
461;-4.54242;-61.73805;S 4 32 32.71;O 61 44 16.98;Beruri;1300631;AM;17411;181.6;;15768.3;0.0;2.2;886.1;572.8;100;2000
462;-4.65613;-44.54994;S 4 39 22.07;O 44 32 59.78;Pedreiras;2108207;MA;292;179.7;;0.0;0.0;289.5;0.0;0.0;160;2000
463;-4.21028;-44.38837;S 4 12 37.01;O 44 23 18.13;Alto Alegre do Maranhão;2100436;MA;388;179.1;;0.0;0.0;424.9;0.0;0.0;155;2000
464;-3.4733199999999997;-61.6709;S 3 28 23.95;O 61 40 15.24;Anamã;1300086;AM;2473;177.0;;2042.4;0.0;0.0;34.6;219.0;100;2000
465;-1.0161200000000001;-52.05024;S 1 0 58.03;O 52 3 0.86;Vitória do Jari;1600808;AP;2481;176.1;;1781.9;12.8;0.8;379.8;129.6;99;2000
466;-5.497669999999999;-70.32124;S 5 29 51.61;O 70 19 16.46;Benjamin Constant;1300607;AM;9146;175.8;;8748.8;0.0;16.6;0.0;204.8;100;2000
467;-3.5582;-51.73873;S 3 33 29.52;O 51 44 19.43;Senador José Porfírio;1507805;PA;14389;175.6;;13740.9;0.0;0.3;84.9;387.3;100;2000
468;-4.50575;-68.24058000000001;S 4 30 20.70;O 68 14 26.09;Jutaí;1302306;AM;71756;175.2;;70314.8;0.0;6.9;97.6;1161.5;100;2000
469;-13.656839999999999;-57.88715;S 13 39 24.62;O 57 53 13.74;Campo Novo do Parecis;5102637;MT;9467;175.1;;1665.5;0.0;0.0;7626.4;0.0;100;2000
470;-2.07583;-49.087540000000004;S 2 4 32.99;O 49 5 15.14;Igarapé-Miri;1503309;PA;2004;168.7;;1310.0;0.0;0.2;203.3;321.8;100;2000
471;-14.146279999999999;-51.797509999999996;S 14 8 46.61;O 51 47 51.04;Nova Nazaré;5106174;MT;4042;168.2;;1096.6;0.0;0.7;2769.7;6.8;100;2000
472;-16.3417;-53.548019999999994;S 16 20 30.12;O 53 32 52.87;Guiratinga;5104203;MT;5359;167.6;;0.0;0.0;190.2;5189.0;0.0;103;2000
473;-13.841470000000001;-51.22546;S 13 50 29.29;O 51 13 31.66;Cocalinho;5103106;MT;16560;167.3;;1800.9;0.0;29.6;14449.5;112.7;100;2000
474;-2.1667799999999997;-52.59636;S 2 10 0.41;O 52 35 46.90;Porto de Moz;1505908;PA;17427;167.1;;12645.7;22.1;2.7;3135.6;1453.8;99;2000
475;-11.04824;-50.2184;S 11 2 53.66;O 50 13 6.24;Lagoa da Confusão;1711902;TO;10588;166.6;;2070.3;0.0;0.4;8239.6;111.1;99;2000
476;-0.82301;-48.03573;S 0 49 22.84;O 48 2 8.63;São Caetano de Odivelas;1507102;PA;752;164.6;;0.0;0.0;606.0;8.8;313.5;145;2000
477;-0.9177700000000001;-48.118109999999994;S 0 55 3.97;O 48 7 5.20;Vigia;1508209;PA;536;163.2;;0.0;0.0;536.9;16.4;161.4;163;2000
478;-5.02168;-44.39893;S 5 1 18.05;O 44 23 56.15;Dom Pedro;2103802;MA;374;162.3;;59.5;0.0;152.2;0.0;0.0;100;2000
479;-15.41888;-56.00402;S 15 25 7.97;O 56 0 14.47;Cuiabá;5103403;MT;3496;161.6;;174.9;0.0;0.4;3159.1;0.0;99;2000
480;-5.83817;-47.09465;S 5 50 17.41;O 47 5 40.74;Montes Altos;2107001;MA;1499;159.4;;81.6;0.0;0.0;1258.0;0.0;99;2000
481;-5.66423;-44.02896;S 5 39 51.23;O 44 1 44.26;Fortuna;2104206;MA;706;158.4;;279.4;0.0;262.9;5.3;0.0;100;2000
482;-12.11997;-50.36955;S 12 7 11.89;O 50 22 10.38;Formoso do Araguaia;1708205;TO;13453;158.4;;497.5;0.0;371.7;12257.6;167.8;100;2000
483;-17.3214;-54.56868000000001;S 17 19 17.04;O 54 34 7.25;Itiquira;5104609;MT;8724;153.2;;222.2;0.0;83.0;8259.3;6.3;100;2000
484;-4.53616;-44.669990000000006;S 4 32 10.18;O 44 40 11.96;Trizidela do Vale;2112233;MA;225;152.8;;0.0;0.0;172.9;0.0;0.0;144;2000
485;-6.21349;-47.848929999999996;S 6 12 48.56;O 47 50 56.15;Luzinópolis;1712454;TO;281;152.1;;25.0;0.0;0.0;103.9;0.0;100;2000
486;-1.89625;-58.81001;S 1 53 46.50;O 58 48 36.04;São Sebastião do Uatumã;1303957;AM;10776;151.4;;9932.6;0.0;0.5;65.7;625.8;99;2000
487;-7.143339999999999;-71.42004;S 7 8 36.02;O 71 25 12.14;Ipixuna;1301803;AM;12595;149.7;;12307.9;0.0;0.6;66.6;70.2;100;2000
488;-7.76452;-68.19675;S 7 45 52.27;O 68 11 48.30;Pauini;1303502;AM;42877;149.5;;42439.7;0.0;2.3;23.7;261.8;100;2000
489;-4.99944;-44.19257;S 4 59 57.98;O 44 11 33.25;Governador Archer;2104503;MA;442;148.1;;0.0;0.0;319.1;0.0;0.0;105;2000
490;-0.14071;-63.185719999999996;S 0 8 26.56;O 63 11 8.59;Barcelos;1300409;AM;124163;146.1;;102387.7;13.6;55.6;17060.1;4499.9;99;2000
491;-9.09022;-72.49765;S 9 5 24.79;O 72 29 51.54;Marechal Thaumaturgo;1200351;AC;8588;144.4;;8352.8;0.0;90.1;0.2;0.5;100;2000
492;-5.38879;-44.07134;S 5 23 19.64;O 44 4 16.82;Governador Eugênio Barros;2104602;MA;829;143.5;;408.9;0.0;276.6;0.0;0.0;100;2000
493;-5.85883;-44.28683;S 5 51 31.79;O 44 17 12.59;Jatobá;2105450;MA;598;142.3;;259.8;0.0;0.0;195.9;0.0;100;2000
494;-9.395760000000001;-70.06354;S 9 23 44.74;O 70 3 48.74;Manoel Urbano;1200344;AC;11118;142.1;;10916.6;0.0;9.8;0.0;49.5;100;2000
495;-0.82105;-47.63978;S 0 49 15.78;O 47 38 23.21;Magalhães Barata;1504109;PA;326;140.0;;0.0;0.0;290.4;2.3;27.6;141;2000
496;-7.61678;-70.19515;S 7 37 0.41;O 70 11 42.54;Envira;1301506;AM;7793;138.8;;7586.0;0.0;5.3;0.1;62.8;100;2000
497;-4.02878;-69.69785999999999;S 4 1 43.61;O 69 41 52.30;Tabatinga;1304062;AM;3343;137.0;;3123.1;0.0;29.6;1.3;52.0;100;2000
498;-0.93652;-47.152770000000004;S 0 56 11.47;O 47 9 9.97;Primavera;1506104;PA;261;135.5;;0.0;0.0;252.4;9.3;8.0;155;2000
499;-5.2432099999999995;-48.32049;S 5 14 35.56;O 48 19 13.76;São Sebastião do Tocantins;1720309;TO;287;135.3;;0.2;0.0;0.0;132.9;18.6;100;2000
500;-3.47819;-45.320190000000004;S 3 28 41.48;O 45 19 12.68;Monção;2106904;MA;1362;134.7;;912.6;0.0;0.1;189.0;125.6;100;2000
501;-6.02067;-47.56977;S 6 1 14.41;O 47 34 11.17;Maurilândia do Tocantins;1712801;TO;741;134.1;;72.6;0.0;0.0;522.8;11.5;100;2000
502;1.31335;-50.929429999999996;N 1 18 48.06;O 50 55 45.95;Tartarugalzinho;1600709;AP;6718;133.8;;3094.5;57.9;16.4;3226.1;189.3;99;2000
503;-5.68039;-47.7632;S 5 40 49.40;O 47 45 47.52;Axixá do Tocantins;1702901;TO;150;133.1;;16.9;0.0;0.0;0.0;0.0;100;2000
504;1.0666;-50.328070000000004;N 1 3 59.76;O 50 19 41.05;Cutias;1600212;AP;2117;131.0;;457.5;11.5;0.5;1452.3;64.2;99;2000
505;-1.7386599999999999;-48.85524;S 1 44 19.18;O 48 51 18.86;Abaetetuba;1500107;PA;1617;130.9;;830.9;0.0;228.0;13.6;413.6;100;2000
506;-5.33031;-48.00378;S 5 19 49.12;O 48 0 13.61;Carrasco Bonito;1703891;TO;194;129.8;;2.0;0.0;0.1;57.9;4.2;99;2000
507;-3.7705300000000004;-45.253170000000004;S 3 46 13.91;O 45 15 11.41;Bela Vista do Maranhão;2101772;MA;147;127.0;;0.0;0.0;0.0;20.8;0.0;100;2000
508;-0.9934700000000001;-47.8485;S 0 59 36.49;O 47 50 54.60;Terra Alta;1507961;PA;209;126.6;;0.0;0.0;209.6;0.0;0.0;160;2000
509;-1.19187;-48.2373;S 1 11 30.73;O 48 14 14.28;Santa Bárbara do Pará;1506351;PA;279;124.6;;0.0;0.0;279.5;0.0;19.6;151;2000
510;1.2324700000000002;-52.686730000000004;N 1 13 56.89;O 52 41 12.23;Pedra Branca do Amapari;1600154;AP;9495;124.3;;9327.6;5.3;33.6;0.0;4.2;100;2000
511;0.77776;-52.9379;N 0 46 39.94;O 52 56 16.44;Laranjal do Jari;1600279;AP;30974;123.3;;30365.4;6.0;269.7;146.9;62.7;100;2000
512;-5.39025;-44.33039;S 5 23 24.90;O 44 19 49.40;Graça Aranha;2104701;MA;275;122.7;;152.3;0.0;0.0;0.0;0.0;100;2000
513;-0.77509;-47.26758;S 0 46 30.32;O 47 16 3.29;São João de Pirabas;1507474;PA;703;118.8;;204.8;0.0;285.1;12.9;81.4;99;2000
514;2.7932900000000003;-60.1737;N 2 47 35.84;O 60 10 25.32;Bonfim;1400159;RR;8141;117.5;;1832.8;0.0;13.3;6134.1;43.3;99;2000
515;-4.57029;-44.44604;S 4 34 13.04;O 44 26 45.74;Lima Campos;2106003;MA;325;115.4;;0.0;0.0;326.0;0.0;0.0;135;2000
516;-3.62986;-45.109559999999995;S 3 37 47.50;O 45 6 34.42;Igarapé do Meio;2105153;MA;397;115.1;;108.3;0.0;0.2;172.9;0.5;99;2000
517;-3.37471;-66.45025;S 3 22 28.96;O 66 27 0.90;Juruá;1302207;AM;19849;114.9;;18849.9;0.0;8.9;142.1;733.2;100;2000
518;-2.54458;-58.65656;S 2 32 40.49;O 58 39 23.62;Itapiranga;1302009;AM;4245;112.5;;3804.5;0.0;0.0;155.6;172.4;100;2000
519;-3.0807900000000004;-69.06723000000001;S 3 4 50.84;O 69 4 2.03;Santo Antônio do Içá;1303700;AM;12737;111.3;;12018.8;0.0;65.2;90.4;451.3;99;2000
520;-8.45223;-72.76651;S 8 27 8.03;O 72 45 59.44;Porto Walter;1200393;AC;6661;110.4;;6546.0;0.0;1.6;3.0;0.0;99;2000
521;-12.32775;-50.97263;S 12 19 39.90;O 50 58 21.47;Novo Santo Antônio;5106315;MT;4375;107.8;;578.0;0.0;0.2;3593.3;95.7;99;2000
522;-6.08345;-44.102109999999996;S 6 5 0.42;O 44 6 7.60;Colinas;2103505;MA;2011;106.6;;208.1;0.0;257.4;1438.9;0.0;99;2000
523;-9.77144;-49.75757;S 9 46 17.18;O 49 45 27.25;Marianópolis do Tocantins;1712504;TO;2096;106.5;;229.7;0.0;0.0;1758.4;1.4;100;2000
524;-15.933029999999999;-56.3487;S 15 55 58.91;O 56 20 55.32;Nossa Senhora do Livramento;5106109;MT;5200;106.1;;82.7;0.0;3.8;5005.1;2.3;99;2000
525;3.18951;-51.77858;N 3 11 22.24;O 51 46 42.89;Oiapoque;1600501;AP;22642;106.0;;13555.7;0.2;4953.0;3899.9;127.2;100;2000
526;-3.42104;-68.34925;S 3 25 15.74;O 68 20 57.30;Amaturá;1300060;AM;4903;105.4;;4361.6;0.0;0.0;222.4;213.6;100;2000
527;-4.73714;-69.52391999999999;S 4 44 13.70;O 69 31 26.11;São Paulo de Olivença;1303908;AM;20467;103.8;;19688.8;0.0;0.3;86.3;587.8;100;2000
528;-10.71979;-70.01543000000001;S 10 43 11.24;O 70 0 55.55;Assis Brasil;1200054;AC;5180;102.4;;5046.1;0.0;31.0;0.5;0.0;100;2000
529;-7.84587;-48.175;S 7 50 45.13;O 48 10 30.00;Palmeirante;1715705;TO;2654;102.0;;14.8;0.0;0.0;2523.5;13.7;100;2000
530;-6.5014;-47.50278;S 6 30 5.04;O 47 30 10.01;Aguiarnópolis;1700301;TO;236;99.7;;29.8;0.0;0.1;102.1;4.3;100;2000
531;-6.096769999999999;-47.85022;S 6 5 48.37;O 47 51 0.79;Cachoeirinha;1703826;TO;354;99.3;;47.4;0.0;0.0;207.3;0.0;100;2000
532;-6.7268300000000005;-67.90389;S 6 43 36.59;O 67 54 14.00;Itamarati;1301951;AM;26042;98.4;;25650.3;0.0;1.5;3.3;288.5;100;2000
533;-1.36009;-48.261340000000004;S 1 21 36.32;O 48 15 40.82;Benevides;1501501;PA;189;96.0;;0.0;0.0;189.4;0.0;8.3;155;2000
534;-6.77305;-47.710440000000006;S 6 46 22.98;O 47 42 37.58;Darcinópolis;1706506;TO;1649;95.6;;38.9;0.0;0.0;1509.6;4.9;100;2000
535;0.8781899999999999;-51.22526;N 0 52 41.48;O 51 13 30.94;Ferreira Gomes;1600238;AP;5047;95.3;;3227.6;7.1;7.9;1643.1;66.0;100;2000
536;-0.90151;-47.345859999999995;S 0 54 5.44;O 47 20 45.10;Santarém Novo;1506906;PA;230;94.4;;0.0;0.0;231.2;1.9;8.8;146;2000
537;-8.91938;-49.017379999999996;S 8 55 9.77;O 49 1 2.57;Goianorte;1708304;TO;1805;91.4;;63.0;0.0;0.1;1650.5;0.0;100;2000
538;0.01942;-49.885059999999996;N 0 1 9.91;O 49 53 6.22;Chaves;1502509;PA;13116;83.4;;4031.0;2.3;1.5;5236.1;3761.7;100;2000
539;-12.96091;-58.60201;S 12 57 39.28;O 58 36 7.24;Sapezal;5107875;MT;13636;83.2;;2950.7;0.0;5.7;10595.9;0.5;100;2000
540;-2.8349;-57.83095;S 2 50 5.64;O 57 49 51.42;Urucurituba;1304401;AM;2915;82.3;;142.7;0.0;0.0;1689.6;1000.4;100;2000
541;-9.22216;-71.85121;S 9 13 19.78;O 71 51 4.36;Jordão;1200328;AC;5635;82.0;;5539.7;0.0;12.8;0.1;0.4;100;2000
542;-1.5162799999999999;-61.51599;S 1 30 58.61;O 61 30 57.56;Novo Airão;1303205;AM;38114;79.6;;36463.1;0.0;0.7;211.9;1358.7;100;2000
543;-2.5459400000000003;-66.9133;S 2 32 45.38;O 66 54 47.88;Fonte Boa;1301605;AM;12392;75.9;;11347.4;0.0;2.1;154.1;812.5;99;2000
544;-2.61234;-64.70305;S 2 36 44.42;O 64 42 10.98;Maraã;1302801;AM;17221;74.9;;14689.4;0.0;5.4;604.6;1846.7;99;2000
545;-0.8685;-47.96322;S 0 52 6.60;O 47 57 47.59;São João da Ponta;1507466;PA;197;74.3;;0.0;0.0;196.9;1.6;11.3;144;2000
546;-16.79972;-56.96679;S 16 47 58.99;O 56 58 0.44;Poconé;5106505;MT;17283;74.0;;917.6;0.0;36.5;15557.9;697.0;99;2000
547;-1.34293;-48.39038;S 1 20 34.55;O 48 23 25.37;Ananindeua;1500800;PA;185;72.7;;0.0;0.0;185.5;0.0;18.4;149;2000
548;-5.34123;-47.90444;S 5 20 28.43;O 47 54 15.98;Sampaio;1718808;TO;223;72.5;;14.0;0.0;0.5;123.4;12.6;100;2000
549;-6.4848300000000005;-47.76416;S 6 29 5.39;O 47 45 50.98;Santa Terezinha do Tocantins;1720002;TO;271;69.8;;27.7;0.0;0.5;173.0;0.0;100;2000
550;-4.15477;-62.08065;S 4 9 17.17;O 62 4 50.34;Anori;1300102;AM;5852;69.5;;4706.9;0.0;0.3;640.6;434.7;100;2000
551;-2.57583;-67.47268000000001;S 2 34 32.99;O 67 28 21.65;Tonantins;1304237;AM;6619;67.7;;6166.6;0.0;1.6;67.4;315.7;99;2000
552;-3.36235;-44.27902;S 3 21 44.46;O 44 16 44.47;Itapecuru Mirim;2105401;MA;1494;66.3;;1109.5;0.0;6.5;308.4;3.3;100;2000
553;-5.57153;-44.08064;S 5 34 17.51;O 44 4 50.30;Governador Luiz Rocha;2104628;MA;377;66.0;;256.2;0.0;28.9;25.9;0.0;100;2000
554;-0.89755;-48.27572;S 0 53 51.18;O 48 16 32.59;Colares;1502608;PA;612;64.7;;0.0;0.0;612.6;15.9;372.6;174;2000
555;-3.5501400000000003;-44.72648;S 3 33 0.50;O 44 43 35.33;Arari;2101004;MA;1115;63.0;;387.9;0.0;0.1;585.3;78.7;100;2000
556;-14.8618;-56.251580000000004;S 14 51 42.48;O 56 15 5.69;Rosário Oeste;5107701;MT;7493;62.5;;26.5;0.0;0.0;7395.0;9.0;99;2000
557;3.72519;-61.80976;N 3 43 30.68;O 61 48 35.14;Amajari;1400027;RR;28786;60.8;;22883.8;0.0;465.5;5292.0;83.9;100;2000
558;-1.15638;-50.43788;S 1 9 22.97;O 50 26 16.37;Breves;1501808;PA;9572;59.5;;8401.7;0.0;1.7;86.2;1022.9;100;2000
559;0.17769000000000001;-51.42352;N 0 10 39.68;O 51 25 24.67;Santana;1600600;AP;1578;59.0;;519.5;14.6;0.6;940.0;44.3;100;2000
560;-0.04351;-51.97972;S 0 2 36.64;O 51 58 46.99;Mazagão;1600402;AP;13140;58.9;;11293.9;186.5;10.3;1347.5;242.9;100;2000
561;-0.74831;-47.02402;S 0 44 53.92;O 47 1 26.47;Quatipuru;1506112;PA;326;57.6;;67.6;0.0;117.2;24.9;58.7;100;2000
562;-9.333060000000001;-49.019259999999996;S 9 19 59.02;O 49 1 9.34;Dois Irmãos do Tocantins;1707207;TO;3772;56.9;;85.2;0.0;1.9;3628.0;0.0;100;2000
563;-1.39704;-48.32114;S 1 23 49.34;O 48 19 16.10;Marituba;1504422;PA;103;54.4;;0.0;0.0;103.6;0.0;7.2;160;2000
564;-6.274369999999999;-46.55403;S 6 16 27.73;O 46 33 14.51;Sítio Novo;2111805;MA;3141;53.9;;0.0;0.0;869.1;3063.1;0.0;126;2000
565;-6.5853;-47.65715;S 6 35 7.08;O 47 39 25.74;Palmeiras do Tocantins;1713809;TO;751;50.2;;30.4;0.0;0.1;669.1;1.2;99;2000
566;-2.20396;-44.47826;S 2 12 14.26;O 44 28 41.74;Alcântara;2100204;MA;1506;47.4;;1036.6;0.0;0.0;72.0;350.0;100;2000
567;0.487;-50.62043;N 0 29 13.20;O 50 37 13.55;Itaubal;1600253;AP;1704;46.5;;458.4;0.0;0.2;779.0;419.9;100;2000
568;-1.38598;-68.79404;S 1 23 9.53;O 68 47 38.54;Japurá;1302108;AM;57555;43.5;;55889.4;1.0;98.3;2.6;1520.2;100;2000
569;-3.5499199999999997;-44.52695;S 3 32 59.71;O 44 31 37.02;Miranda do Norte;2106755;MA;357;43.4;;249.4;0.0;51.2;12.8;0.2;100;2000
570;1.63998;-52.27148;N 1 38 23.93;O 52 16 17.33;Serra do Navio;1600055;AP;7762;43.1;;7708.4;0.7;0.7;0.0;9.1;100;2000
571;-1.4712399999999999;-45.40039;S 1 28 16.46;O 45 24 1.40;Turiaçu;2112407;MA;2603;42.5;;2444.5;0.0;1.3;48.0;66.7;99;2000
572;-2.4694599999999998;-45.536809999999996;S 2 28 10.06;O 45 32 12.52;Santa Helena;2109809;MA;2335;42.0;;1555.8;0.0;0.0;629.3;107.9;100;2000
573;4.16686;-60.88685;N 4 10 0.70;O 60 53 12.66;Pacaraima;1400456;RR;8083;41.1;;1637.5;0.0;125.2;6264.1;15.1;100;2000
574;1.61009;-50.736540000000005;N 1 36 36.32;O 50 44 11.54;Pracuúba;1600550;AP;4965;41.1;;3630.4;44.5;3.9;1176.0;69.1;100;2000
575;-5.49785;-44.60715;S 5 29 52.26;O 44 36 25.74;Santa Filomena do Maranhão;2109759;MA;408;40.9;;27.8;0.0;0.0;339.3;0.0;99;2000
576;-3.54938;-44.93269;S 3 32 57.77;O 44 55 57.68;Vitória do Mearim;2112902;MA;736;38.8;;222.2;0.0;0.2;464.9;9.9;100;2000
577;-9.51622;-70.29089;S 9 30 58.39;O 70 17 27.20;Santa Rosa do Purus;1200435;AC;6350;37.6;;6248.5;0.0;28.9;0.1;34.9;100;2000
578;1.6833900000000002;-50.24716;N 1 41 0.20;O 50 14 49.78;Amapá;1600105;AP;9186;37.3;;3151.5;108.4;2.4;4911.1;975.3;100;2000
579;-0.81267;-48.58165;S 0 48 45.61;O 48 34 53.94;Salvaterra;1506302;PA;1048;34.4;;0.0;0.0;357.1;433.3;299.7;107;2000
580;-8.909410000000001;-49.57375;S 8 54 33.88;O 49 34 25.50;Araguacema;1701903;TO;2786;34.1;;435.8;0.0;0.0;2232.0;84.1;99;2000
581;-14.087710000000001;-52.43685;S 14 5 15.76;O 52 26 12.66;Água Boa;5100201;MT;7486;33.0;;126.8;0.0;3.8;7322.4;0.0;99;2000
582;-2.957;-44.2037;S 2 57 25.20;O 44 12 13.32;Rosário;2109601;MA;695;32.1;;568.5;0.0;0.0;0.0;94.4;100;2000
583;-13.57465;-59.22724;S 13 34 28.74;O 59 13 38.06;Campos de Júlio;5102686;MT;6831;31.6;;546.9;0.0;4.4;6248.1;0.0;100;2000
584;-2.48368;-50.18049;S 2 29 1.25;O 50 10 49.76;Bagre;1501105;PA;4403;31.6;;4053.0;0.0;0.1;61.5;256.8;100;2000
585;-3.2660299999999998;-45.29065;S 3 15 57.71;O 45 17 26.34;Penalva;2108306;MA;792;31.4;;483.5;0.0;0.0;154.7;122.4;99;2000
586;-3.15407;-44.33057;S 3 9 14.65;O 44 19 50.05;Santa Rita;2110203;MA;718;31.4;;496.2;0.0;0.0;168.6;21.8;100;2000
587;-2.49468;-45.14562;S 2 29 40.85;O 45 8 44.23;Pinheiro;2108603;MA;1482;29.9;;932.0;0.0;0.0;414.3;105.8;100;2000
588;-11.37865;-49.39815;S 11 22 43.14;O 49 23 53.34;Dueré;1707306;TO;3435;29.6;;0.0;0.0;1158.0;3150.7;3.9;126;2000
589;-9.94502;-50.0224;S 9 56 42.07;O 50 1 20.64;Pium;1717503;TO;10035;28.1;;1674.3;0.0;0.9;8080.3;251.4;100;2000
590;-16.45731;-54.27559;S 16 27 26.32;O 54 16 32.12;São José do Povo;5107297;MT;443;27.3;;0.0;0.0;0.0;416.1;0.0;100;2000
591;-3.09801;-44.06306;S 3 5 52.84;O 44 3 47.02;Presidente Juscelino;2109205;MA;360;27.0;;294.7;0.0;2.5;33.3;2.5;99;2000
592;-2.62711;-44.30617;S 2 37 37.60;O 44 18 22.21;São Luís;2111300;MA;839;25.5;;522.0;0.0;0.4;0.0;291.1;100;2000
593;-2.5908700000000002;-45.34959;S 2 35 27.13;O 45 20 58.52;Presidente Sarney;2109270;MA;732;24.4;;622.8;0.0;0.0;82.1;2.7;100;2000
594;-2.44278;-44.81342;S 2 26 34.01;O 44 48 48.31;Bequimão;2101905;MA;779;24.1;;518.7;0.0;0.0;195.8;40.4;100;2000
595;-8.69697;-47.110929999999996;S 8 41 49.09;O 47 6 39.35;Recursolândia;1718501;TO;2230;21.7;;105.9;0.0;1.5;2100.9;0.0;99;2000
596;-2.93046;-44.365590000000005;S 2 55 49.66;O 44 21 56.12;Bacabeira;2101251;MA;625;20.6;;281.7;0.0;0.1;226.1;96.5;100;2000
597;-0.2385;-50.740829999999995;S 0 14 18.60;O 50 44 26.99;Afuá;1500305;PA;8382;20.2;;5334.0;0.0;0.5;286.7;2740.6;100;2000
598;-0.53599;-48.677209999999995;S 0 32 9.56;O 48 40 37.96;Soure;1507904;PA;3528;19.3;;0.0;0.0;475.9;2502.9;730.9;105;2000
599;4.71636;-60.34048000000001;N 4 42 58.90;O 60 20 25.73;Uiramutã;1400704;RR;8117;19.2;;2152.0;0.8;52.8;5884.1;8.1;100;2000
600;-0.79152;-49.997859999999996;S 0 47 29.47;O 49 59 52.30;Anajás;1500701;PA;6940;19.2;;6572.6;0.8;1.5;209.1;136.8;100;2000
601;-16.78964;-54.251430000000006;S 16 47 22.70;O 54 15 5.15;Pedra Preta;5106372;MT;4107;19.2;;2.8;0.0;0.0;4085.0;0.0;100;2000
602;-6.23471;-45.32776;S 6 14 4.96;O 45 19 39.94;Fernando Falcão;2104081;MA;3547;19.1;;100.3;0.0;0.0;3427.6;0.0;100;2000
603;-6.57908;-46.156040000000004;S 6 34 44.69;O 46 9 21.74;Formosa da Serra Negra;2104099;MA;3977;18.0;;0.0;0.0;2389.6;3918.9;0.0;159;2000
604;-9.23883;-48.4489;S 9 14 19.79;O 48 26 56.04;Rio dos Bois;1718709;TO;848;17.8;;0.2;0.0;0.0;828.1;1.9;99;2000
605;-2.11952;-45.43842;S 2 7 10.27;O 45 26 18.31;Turilândia;2112456;MA;1529;17.5;;1315.3;0.0;0.1;135.6;60.5;100;2000
606;-9.20402;-48.00201;S 9 12 14.47;O 48 0 7.24;Pedro Afonso;1716505;TO;2021;15.7;;36.1;0.0;0.1;1949.5;19.6;100;2000
607;-10.96311;-49.32012;S 10 57 47.20;O 49 19 12.43;Santa Rita do Tocantins;1718899;TO;3285;14.9;;0.0;0.0;1110.2;3247.0;0.2;133;2000
608;-2.9883599999999997;-45.42901;S 2 59 18.10;O 45 25 44.44;Pedro do Rosário;2108256;MA;1770;14.1;;1686.5;0.0;0.0;69.4;0.0;100;2000
609;-2.5952;-44.09279;S 2 35 42.72;O 44 5 34.04;São José de Ribamar;2111201;MA;390;13.8;;168.9;0.0;35.1;0.0;172.2;100;2000
610;-10.97819;-50.93233;S 10 58 41.48;O 50 55 56.39;Luciara;5105309;MT;4152;13.6;;419.0;0.0;0.0;3675.5;43.9;100;2000
611;2.62983;-51.23225;N 2 37 47.39;O 51 13 56.10;Calçoene;1600204;AP;14283;13.3;;11673.0;42.1;431.7;1950.7;172.2;100;2000
612;-9.63968;-49.40955;S 9 38 22.85;O 49 24 34.38;Divinópolis do Tocantins;1707108;TO;2355;12.8;;62.9;0.0;0.1;2279.2;0.0;99;2000
613;-3.1301200000000002;-45.18793;S 3 7 48.43;O 45 11 16.55;Viana;2112803;MA;1176;12.2;;586.4;0.0;0.0;382.3;195.1;100;2000
614;-2.8175;-44.088190000000004;S 2 49 3.00;O 44 5 17.48;Axixá;2101103;MA;205;12.1;;135.7;0.0;0.0;0.0;57.2;100;2000
615;-2.07767;-44.51918;S 2 4 39.61;O 44 31 9.05;Guimarães;2104909;MA;604;12.0;;457.4;0.0;0.0;7.8;126.8;100;2000
616;-3.40294;-45.00291;S 3 24 10.58;O 45 0 10.48;Cajari;2102507;MA;551;10.7;;75.6;0.0;0.0;352.2;112.5;100;2000
617;3.01737;-60.743840000000006;N 3 1 2.53;O 60 44 37.82;Boa Vista;1400100;RR;5726;10.2;;239.9;0.0;0.0;5381.9;94.0;100;2000
618;-2.50434;-44.119479999999996;S 2 30 15.62;O 44 7 10.13;Paço do Lumiar;2107506;MA;134;9.9;;115.5;0.0;0.0;0.0;8.6;100;2000
619;-6.76357;-47.18332;S 6 45 48.85;O 47 10 59.95;Estreito;2104057;MA;2737;7.2;;8.3;0.0;0.1;2700.3;21.1;99;2000
620;-0.70803;-47.351420000000005;S 0 42 28.91;O 47 21 5.11;Salinópolis;1506203;PA;219;7.0;;164.7;0.0;15.9;10.5;20.9;100;2000
621;-1.56776;-50.04488;S 1 34 3.94;O 50 2 41.57;Curralinho;1502806;PA;3626;6.9;;3006.3;0.0;0.8;241.4;370.6;99;2000
622;-1.51676;-44.843379999999996;S 1 31 0.34;O 44 50 36.17;Cururupu;2103703;MA;1235;6.8;;1046.5;0.0;0.6;12.6;168.5;99;2000
623;-3.25025;-44.59701;S 3 15 0.90;O 44 35 49.24;Anajatuba;2100709;MA;1024;5.5;;352.8;0.0;0.0;552.8;112.9;100;2000
624;-12.38825;-49.85725;S 12 23 17.70;O 49 51 26.10;Sandolândia;1718840;TO;3536;4.1;;75.1;0.0;1.1;3440.9;14.8;100;2000
625;-2.56371;-44.91918;S 2 33 49.36;O 44 55 9.05;Peri Mirim;2108405;MA;409;4.0;;277.9;0.0;0.0;126.3;0.8;100;2000
626;-9.00182;-47.86311;S 9 0 6.55;O 47 51 47.20;Bom Jesus do Tocantins;1703305;TO;1338;3.9;;10.5;0.0;0.0;1314.6;9.0;99;2000
627;-1.12099;-51.49156;S 1 7 15.56;O 51 29 29.62;Gurupá;1503101;PA;8550;3.8;;6725.7;4.6;1.5;517.1;1297.3;99;2000
628;-1.31435;-49.34437;S 1 18 51.66;O 49 20 39.73;Muaná;1504901;PA;3776;3.8;;1924.3;0.0;1.0;1361.3;485.6;100;2000
629;-7.16202;-47.91015;S 7 9 43.27;O 47 54 36.54;Babaçulândia;1703008;TO;1796;3.5;;0.0;0.0;0.0;1779.2;13.5;100;2000
630;-1.68907;-45.22394;S 1 41 20.65;O 45 13 26.18;Bacuri;2101301;MA;795;3.4;;696.8;0.0;0.3;5.5;89.0;100;2000
631;-1.53536;-51.06862;S 1 32 7.30;O 51 4 7.03;Melgaço;1504505;PA;6781;2.9;;6084.0;0.5;0.9;166.3;526.4;99;2000
632;-2.41702;-44.04998;S 2 25 1.27;O 44 2 59.93;Raposa;2109452;MA;64;2.4;;53.1;0.0;0.1;0.7;7.7;100;2000
633;-1.88674;-45.04397;S 1 53 12.26;O 45 2 38.29;Serrano do Maranhão;2111789;MA;1221;2.2;;1202.6;0.0;0.2;2.3;13.7;100;2000
634;-9.46606;-49.339009999999995;S 9 27 57.82;O 49 20 20.44;Abreulândia;1700251;TO;1900;2.2;;53.2;0.0;0.3;1844.3;0.0;100;2000
635;-2.6896;-44.98717;S 2 41 22.56;O 44 59 13.81;Palmeirândia;2107605;MA;532;2.1;;449.6;0.0;0.0;58.0;22.3;99;2000
636;-3.06101;-45.77225;S 3 3 39.64;O 45 46 20.10;Araguanã;2100873;MA;811;1.6;;809.4;0.0;0.0;0.0;0.0;100;2000
637;-0.81338;-48.95588;S 0 48 48.17;O 48 57 21.17;Cachoeira do Arari;1502004;PA;3115;1.6;;172.4;0.0;207.6;2267.7;465.7;99;2000
638;-3.05864;-45.03755;S 3 3 31.10;O 45 2 15.18;Matinha;2106508;MA;414;1.5;;290.8;0.0;0.0;49.2;72.5;99;2000
639;-1.4310200000000002;-49.6042;S 1 25 51.67;O 49 36 15.12;São Sebastião da Boa Vista;1507706;PA;1636;0.9;;1343.8;0.0;0.3;175.1;115.9;100;2000
640;-14.820129999999999;-53.691959999999995;S 14 49 12.47;O 53 41 31.06;Santo Antônio do Leste;5107792;MT;3597;0.9;;65.9;0.0;0.0;3530.2;0.0;100;2000
641;-1.10948;-49.06293;S 1 6 34.13;O 49 3 46.55;Ponta de Pedras;1505700;PA;3378;0.8;;658.3;0.0;1.9;2254.4;462.6;100;2000
642;-10.16549;-49.17753;S 10 9 55.76;O 49 10 39.11;Chapada de Areia;1704600;TO;661;0.6;;11.0;0.0;0.5;648.9;0.0;100;2000
643;-15.06182;-53.1936;S 15 3 42.55;O 53 11 36.96;Novo São Joaquim;5106281;MT;5022;0.6;;118.3;0.0;0.6;4900.3;2.2;100;2000
644;-14.2559;-53.18637;S 14 15 21.24;O 53 11 10.93;Campinápolis;5102603;MT;5968;0.6;;7.8;0.0;3.5;5956.1;0.0;100;2000
645;-1.88563;-49.495509999999996;S 1 53 8.27;O 49 29 43.84;Limoeiro do Ajuru;1504000;PA;1494;0.5;;934.3;0.0;0.5;50.9;507.8;100;2000
646;-1.83139;-44.614129999999996;S 1 49 53.00;O 44 36 50.87;Porto Rico do Maranhão;2109056;MA;211;0.5;;200.5;0.0;0.0;0.5;9.5;99;2000
647;-9.98708;-49.11202;S 9 59 13.49;O 49 6 43.27;Monte Santo do Tocantins;1713700;TO;1096;0.4;;11.0;0.0;0.6;1084.0;0.0;100;2000
648;-2.98224;-45.011309999999995;S 2 58 56.06;O 45 0 40.72;Olinda Nova do Maranhão;2107456;MA;200;0.3;;184.1;0.0;0.0;1.4;14.2;100;2000
649;3.8366300000000004;-60.032540000000004;N 3 50 11.87;O 60 1 57.14;Normandia;1400407;RR;7003;0.3;;520.1;0.0;8.1;6451.9;22.6;100;2000
650;-8.355269999999999;-48.19828;S 8 21 18.97;O 48 11 53.81;Tupiratins;1721307;TO;900;0.1;;8.9;0.0;0.0;883.1;7.9;100;2000
651;-1.9472200000000002;-44.571329999999996;S 1 56 49.99;O 44 34 16.79;Cedral;2103109;MA;291;0.1;;283.8;0.0;0.1;0.2;6.8;100;2000
652;-2.07065;-44.8448;S 2 4 14.34;O 44 50 41.28;Mirinzal;2106805;MA;696;0.1;;695.6;0.0;0.0;0.0;0.3;99;2000
653;-1.43741;-45.09702;S 1 26 14.68;O 45 5 49.27;Apicum-Açu;2100832;MA;349;0.1;;286.4;0.0;0.3;3.0;59.2;100;2000
654;-2.78496;-44.93574;S 2 47 5.86;O 44 56 8.66;São Bento;2110500;MA;465;0.1;;364.6;0.0;0.0;99.8;0.5;99;2000
655;-2.2546;-44.85014;S 2 15 16.56;O 44 51 0.50;Central do Maranhão;2103125;MA;370;0.1;;270.8;0.0;0.0;97.7;1.4;100;2000
656;-15.12711;-54.21448;S 15 7 37.60;O 54 12 52.13;Primavera do Leste;5107040;MT;5473;0.0;;17.8;0.0;0.0;5455.2;0.0;100;2000
657;-8.21406;-46.771370000000005;S 8 12 50.62;O 46 46 16.93;Campos Lindos;1703842;TO;3266;0.0;;0.5;0.0;1.1;3264.4;0.0;100;2000
658;-0.55415;-49.32373;S 0 33 14.94;O 49 19 25.43;Santa Cruz do Arari;1506401;PA;1078;0.0;;5.7;0.0;0.0;1044.1;28.2;100;2000
659;-11.35975;-48.940979999999996;S 11 21 35.10;O 48 56 27.53;Aliança do Tocantins;1700350;TO;1585;0.0;;0.0;0.0;1529.0;1585.9;0.0;196;2000
660;-11.473239999999999;-47.30304;S 11 28 23.66;O 47 18 10.94;Almas;1700400;TO;4041;0.0;;0.0;0.0;4048.8;4041.0;0.0;200;2000
661;-12.408439999999999;-49.11486;S 12 24 30.38;O 49 6 53.50;Alvorada;1700707;TO;1216;0.0;;0.0;0.0;1216.4;1216.1;0.0;200;2000
662;-9.97682;-48.0215;S 9 58 36.55;O 48 1 17.40;Aparecida do Rio Negro;1701101;TO;1166;0.0;;0.0;0.0;0.0;1166.8;0.0;100;2000
663;-12.83987;-49.7752;S 12 50 23.53;O 49 46 30.72;Araguaçu;1702000;TO;5183;0.0;;0.0;0.0;2328.3;5099.8;2.7;143;2000
664;-12.819980000000001;-46.91441;S 12 49 11.93;O 46 54 51.88;Arraias;1702406;TO;5827;0.0;;0.0;0.0;5827.8;5814.1;0.0;199;2000
665;-12.62674;-46.48403;S 12 37 36.26;O 46 29 2.51;Aurora do Tocantins;1702703;TO;756;0.0;;0.0;0.0;756.4;754.5;0.0;199;2000
666;-7.71197;-47.63915;S 7 42 43.09;O 47 38 20.94;Barra do Ouro;1703073;TO;1112;0.0;;0.0;0.0;0.0;1093.1;19.7;100;2000
667;-9.90013;-48.78047;S 9 54 0.47;O 48 46 49.69;Barrolândia;1703107;TO;715;0.0;;0.0;0.0;0.3;714.9;0.0;100;2000
668;-11.06608;-48.690690000000004;S 11 3 57.89;O 48 41 26.48;Brejinho de Nazaré;1703701;TO;1731;0.0;;0.0;0.0;1636.3;1729.1;1.9;194;2000
669;-11.94736;-49.13968;S 11 56 50.50;O 49 8 22.85;Cariri do Tocantins;1703867;TO;1130;0.0;;0.0;0.0;1105.8;1130.5;0.0;197;2000
670;-9.07581;-47.43855;S 9 4 32.92;O 47 26 18.78;Centenário;1704105;TO;1967;0.0;;0.0;0.0;0.0;1967.7;0.0;100;2000
671;-11.51346;-47.82991;S 11 30 48.46;O 47 49 47.68;Chapada da Natividade;1705102;TO;1655;0.0;;0.0;0.0;1679.8;1655.2;0.0;201;2000
672;-12.83387;-46.4895;S 12 50 1.93;O 46 29 22.20;Combinado;1705557;TO;211;0.0;;0.0;0.0;210.8;194.4;0.0;192;2000
673;-12.14589;-47.28829;S 12 8 45.20;O 47 17 17.84;Conceição do Tocantins;1705607;TO;2519;0.0;;0.0;0.0;2520.4;2519.6;0.0;200;2000
674;-10.63885;-49.312020000000004;S 10 38 19.86;O 49 18 43.27;Cristalândia;1706100;TO;1854;0.0;;0.0;0.0;97.5;1852.9;0.0;105;2000
675;-11.15672;-49.06416;S 11 9 24.19;O 49 3 50.98;Crixás do Tocantins;1706258;TO;990;0.0;;0.0;0.0;720.4;990.5;0.0;172;2000
676;-11.79703;-46.97684;S 11 47 49.31;O 46 58 36.62;Dianópolis;1707009;TO;3240;0.0;;0.0;0.0;3240.0;3235.3;0.0;199;2000
677;-10.82808;-48.902590000000004;S 10 49 41.09;O 48 54 9.32;Fátima;1707553;TO;385;0.0;;0.0;0.0;282.7;385.0;0.0;173;2000
678;-12.23892;-49.41498;S 12 14 20.11;O 49 24 53.93;Figueirópolis;1707652;TO;1935;0.0;;0.0;0.0;1624.0;1935.3;0.0;183;2000
679;-7.51348;-47.85975;S 7 30 48.53;O 47 51 35.10;Filadélfia;1707702;TO;1998;0.0;;0.0;0.0;0.0;1975.5;23.5;100;2000
680;-8.0201;-47.47381;S 8 1 12.36;O 47 28 25.72;Goiatins;1709005;TO;6450;0.0;;0.0;0.0;0.1;6434.6;15.9;100;2000
681;-11.65795;-48.9217;S 11 39 28.62;O 48 55 18.12;Gurupi;1709500;TO;1843;0.0;;0.0;0.0;1844.6;1843.3;0.0;200;2000
682;-11.11862;-48.42263;S 11 7 7.03;O 48 25 21.47;Ipueiras;1709807;TO;818;0.0;;0.0;0.0;817.3;818.0;0.0;199;2000
683;-8.50117;-47.61437;S 8 30 4.21;O 47 36 51.73;Itacajá;1710508;TO;3072;0.0;;0.0;0.0;0.0;3072.4;0.0;100;2000
684;-8.29996;-48.04697;S 8 17 59.86;O 48 2 49.09;Itapiratins;1710904;TO;1250;0.0;;0.0;0.0;0.0;1210.9;39.1;100;2000
685;-12.85689;-48.67771;S 12 51 24.80;O 48 40 39.76;Jaú do Tocantins;1711506;TO;2184;0.0;;0.0;0.0;2186.3;2173.2;0.0;199;2000
686;-10.34474;-47.49628;S 10 20 41.06;O 47 29 46.61;Lagoa do Tocantins;1711951;TO;917;0.0;;0.0;0.0;516.6;917.7;0.0;156;2000
687;-9.83859;-48.28634;S 9 50 18.92;O 48 17 10.82;Lajeado;1712009;TO;324;0.0;;0.0;0.0;0.0;314.0;10.3;100;2000
688;-12.822980000000001;-46.3478;S 12 49 22.73;O 46 20 52.08;Lavandeira;1712157;TO;524;0.0;;0.0;0.0;525.2;515.5;0.0;198;2000
689;-9.49503;-46.82646;S 9 29 42.11;O 46 49 35.26;Lizarda;1712405;TO;5769;0.0;;0.0;0.0;4144.4;5765.5;0.0;171;2000
690;-10.70172;-46.53856;S 10 42 6.19;O 46 32 18.82;Mateiros;1712702;TO;9665;0.0;;0.0;0.0;9674.9;9403.3;0.0;197;2000
691;-9.71454;-48.61508;S 9 42 52.34;O 48 36 54.29;Miracema do Tocantins;1713205;TO;2663;0.0;;0.0;0.0;0.0;2650.6;13.0;100;2000
692;-10.735289999999999;-48.02248;S 10 44 7.04;O 48 1 20.93;Monte do Carmo;1713601;TO;3635;0.0;;0.0;0.0;1003.8;3633.6;1.1;127;2000
693;-11.725439999999999;-47.62384;S 11 43 31.58;O 47 37 25.82;Natividade;1714203;TO;3260;0.0;;0.0;0.0;3236.4;3260.4;0.0;199;2000
694;-10.52683;-48.99716;S 10 31 36.59;O 48 59 49.78;Nova Rosalândia;1715002;TO;518;0.0;;0.0;0.0;0.1;518.4;0.0;100;2000
695;-10.15926;-47.24617;S 10 9 33.34;O 47 14 46.21;Novo Acordo;1715101;TO;2686;0.0;;0.0;0.0;1640.8;2686.9;0.0;161;2000
696;-12.88746;-46.58528;S 12 53 14.86;O 46 35 7.01;Novo Alegre;1715150;TO;201;0.0;;0.0;0.0;201.7;157.1;0.0;178;2000
697;-11.807830000000001;-46.653890000000004;S 11 48 28.19;O 46 39 14.00;Novo Jardim;1715259;TO;1321;0.0;;0.0;0.0;1321.2;1318.0;0.0;199;2000
698;-10.65995;-48.87706;S 10 39 35.82;O 48 52 37.42;Oliveira de Fátima;1715507;TO;207;0.0;;0.0;0.0;0.5;207.3;0.0;100;2000
699;-13.04147;-48.33067;S 13 2 29.29;O 48 19 50.41;Palmeirópolis;1715754;TO;1710;0.0;;0.0;0.0;1710.2;1705.0;0.0;199;2000
700;-10.21749;-48.865159999999996;S 10 13 2.96;O 48 51 54.58;Paraíso do Tocantins;1716109;TO;1274;0.0;;0.0;0.0;0.4;1273.8;0.0;100;2000
701;-12.75266;-47.78602;S 12 45 9.58;O 47 47 9.67;Paranã;1716208;TO;11321;0.0;;0.0;0.0;11321.1;11311.5;0.0;199;2000
702;-11.93015;-48.58893;S 11 55 48.54;O 48 35 20.15;Peixe;1716604;TO;5315;0.0;;0.0;0.0;5314.7;5316.3;0.0;200;2000
703;-11.1956;-47.57902;S 11 11 44.16;O 47 34 44.47;Pindorama do Tocantins;1717008;TO;1567;0.0;;0.0;0.0;1567.4;1567.4;0.0;200;2000
704;-12.066510000000001;-46.57578;S 12 3 59.44;O 46 34 32.81;Ponte Alta do Bom Jesus;1717800;TO;1818;0.0;;0.0;0.0;1819.6;1815.8;0.0;199;2000
705;-10.7525;-47.37027;S 10 45 9.00;O 47 22 12.97;Ponte Alta do Tocantins;1717909;TO;6534;0.0;;0.0;0.0;4989.2;6524.1;10.1;176;2000
706;-11.54951;-47.065870000000004;S 11 32 58.24;O 47 3 57.13;Porto Alegre do Tocantins;1718006;TO;505;0.0;;0.0;0.0;505.1;505.6;0.0;200;2000
707;-10.54819;-48.54647;S 10 32 53.48;O 48 32 47.29;Porto Nacional;1718204;TO;4472;0.0;;0.0;0.0;561.0;4441.5;31.6;112;2000
708;-10.42056;-48.86192;S 10 25 14.02;O 48 51 42.91;Pugmil;1718451;TO;403;0.0;;0.0;0.0;0.0;403.3;0.0;100;2000
709;-11.30829;-46.751290000000004;S 11 18 29.84;O 46 45 4.64;Rio da Conceição;1718659;TO;793;0.0;;0.0;0.0;777.6;785.9;0.0;197;2000
710;-9.64454;-47.48905;S 9 38 40.34;O 47 29 20.58;Rio Sono;1718758;TO;6394;0.0;;0.0;0.0;1928.6;6392.1;0.0;130;2000
711;-8.800989999999999;-47.89796;S 8 48 3.56;O 47 53 52.66;Santa Maria do Tocantins;1718881;TO;1419;0.0;;0.0;0.0;0.0;1410.6;9.3;100;2000
712;-11.41267;-48.13864;S 11 24 45.61;O 48 8 19.10;Santa Rosa do Tocantins;1718907;TO;1804;0.0;;0.0;0.0;1804.2;1804.1;0.0;200;2000
713;-10.29171;-47.74599;S 10 17 30.16;O 47 44 45.56;Santa Tereza do Tocantins;1719004;TO;543;0.0;;0.0;0.0;0.0;543.7;0.0;100;2000
714;-10.043610000000001;-46.75224;S 10 2 37.00;O 46 45 8.06;São Félix do Tocantins;1720150;TO;1923;0.0;;0.0;0.0;1923.1;1923.4;0.0;200;2000
715;-12.54073;-48.35452;S 12 32 26.63;O 48 21 16.27;São Salvador do Tocantins;1720259;TO;1429;0.0;;0.0;0.0;1431.0;1429.0;0.0;200;2000
716;-11.77169;-48.22797;S 11 46 18.08;O 48 13 40.69;São Valério da Natividade;1720499;TO;2532;0.0;;0.0;0.0;2531.7;2532.2;0.0;200;2000
717;-11.11331;-48.22351;S 11 6 47.92;O 48 13 24.64;Silvanópolis;1720655;TO;1268;0.0;;0.0;0.0;1262.6;1268.6;0.0;199;2000
718;-12.08831;-48.85414;S 12 5 17.92;O 48 51 14.90;Sucupira;1720853;TO;1030;0.0;;0.0;0.0;1031.4;1030.8;0.0;200;2000
719;-12.34835;-46.59775;S 12 20 54.06;O 46 35 51.90;Taguatinga;1720903;TO;2458;0.0;;0.0;0.0;2457.9;2452.3;0.0;199;2000
720;-12.15468;-46.97995;S 12 9 16.85;O 46 58 47.82;Taipas do Tocantins;1720937;TO;1123;0.0;;0.0;0.0;1123.4;1123.5;0.0;200;2000
721;-12.6709;-49.06021;S 12 40 15.24;O 49 3 36.76;Talismã;1720978;TO;2162;0.0;;0.0;0.0;2161.0;2158.4;0.0;199;2000
722;-10.18871;-48.111340000000006;S 10 11 19.36;O 48 6 40.82;Palmas;1721000;TO;2227;0.0;;0.0;0.0;0.0;2205.0;22.6;100;2000
723;-9.61778;-48.15994;S 9 37 4.01;O 48 9 35.78;Tocantínia;1721109;TO;2619;0.0;;0.0;0.0;0.3;2600.5;18.8;100;2000
724;-8.940539999999999;-48.28255;S 8 56 25.94;O 48 16 57.18;Tupirama;1721257;TO;715;0.0;;0.0;0.0;0.0;709.8;5.7;100;2000
725;-9.50943;-46.19474;S 9 30 33.95;O 46 11 41.06;Alto Parnaíba;2100501;MA;11229;0.0;;156.3;0.0;0.0;11072.7;0.0;100;2000
726;-2.69129;-44.65781;S 2 41 28.64;O 44 39 28.12;Bacurituba;2101350;MA;684;0.0;;48.6;0.0;0.0;358.2;277.2;100;2000
727;-8.28674;-46.26008;S 8 17 12.26;O 46 15 36.29;Balsas;2101400;MA;13259;0.0;;0.0;0.0;5060.4;13259.1;0.0;138;2000
728;-7.159489999999999;-44.58334;S 7 9 34.16;O 44 35 0.02;Benedito Leite;2101806;MA;1804;0.0;;122.3;0.0;0.0;1681.7;0.0;100;2000
729;-2.86835;-44.61461;S 2 52 6.06;O 44 36 52.60;Cajapió;2102408;MA;918;0.0;;416.3;0.0;0.0;116.1;385.6;100;2000
730;-7.452719999999999;-47.305440000000004;S 7 27 9.79;O 47 18 19.58;Carolina;2102804;MA;6485;0.0;;0.0;0.0;332.3;6429.6;55.1;105;2000
731;-7.0053399999999995;-46.64737;S 7 0 19.22;O 46 38 50.53;Feira Nova do Maranhão;2104073;MA;1486;0.0;;0.0;0.0;1317.5;1486.9;0.0;188;2000
732;-6.987360000000001;-46.11264;S 6 59 14.50;O 46 6 45.50;Fortaleza dos Nogueiras;2104107;MA;1680;0.0;;0.0;0.0;1680.7;1680.7;0.0;200;2000
733;-7.2038899999999995;-45.170809999999996;S 7 12 14.00;O 45 10 14.92;Loreto;2106102;MA;3638;0.0;;60.0;0.0;0.0;3578.0;0.0;100;2000
734;-6.40255;-44.831759999999996;S 6 24 9.18;O 44 49 54.34;Mirador;2106706;MA;8716;0.0;;0.0;0.0;3907.8;8716.3;0.0;144;2000
735;-7.172810000000001;-46.20838;S 7 10 22.12;O 46 12 30.17;Nova Colinas;2107258;MA;748;0.0;;0.0;0.0;750.0;748.8;0.0;200;2000
736;-6.77152;-44.143190000000004;S 6 46 17.47;O 44 8 35.48;Nova Iorque;2107308;MA;992;0.0;;483.4;0.0;0.0;508.6;0.0;100;2000
737;-6.65188;-44.20576;S 6 39 6.77;O 44 12 20.74;Pastos Bons;2108009;MA;1660;0.0;;0.0;0.0;1310.4;1444.8;0.0;165;2000
738;-7.74682;-46.626709999999996;S 7 44 48.55;O 46 37 36.16;Riachão;2109502;MA;6422;0.0;;0.0;0.0;4449.1;6422.7;0.0;169;2000
739;-7.3979800000000004;-45.56971;S 7 23 52.73;O 45 34 10.96;Sambaíba;2109700;MA;2509;0.0;;31.9;0.0;0.0;2477.1;0.0;100;2000
740;-6.84762;-44.59859;S 6 50 51.43;O 44 35 54.92;São Domingos do Azeitão;2110658;MA;974;0.0;;0.0;0.0;1071.7;974.2;0.0;210;2000
741;-7.10735;-44.885709999999996;S 7 6 26.46;O 44 53 8.56;São Félix de Balsas;2110807;MA;2057;0.0;;12.5;0.0;0.0;2044.5;0.0;100;2000
742;-3.01337;-44.77539;S 3 0 48.13;O 44 46 31.40;São João Batista;2111003;MA;700;0.0;;206.0;0.0;0.0;358.8;135.2;100;2000
743;-6.850280000000001;-46.80829;S 6 51 1.01;O 46 48 29.84;São Pedro dos Crentes;2111573;MA;987;0.0;;0.0;0.0;454.5;988.0;0.0;146;2000
744;-7.052010000000001;-45.66837;S 7 3 7.24;O 45 40 6.13;São Raimundo das Mangabeiras;2111607;MA;3555;0.0;;0.0;0.0;3556.4;3555.6;0.0;200;2000
745;-2.87304;-44.93268;S 2 52 22.94;O 44 55 57.65;São Vicente Ferrer;2111706;MA;393;0.0;;295.2;0.0;0.0;97.8;0.0;100;2000
746;-6.5022199999999994;-44.32649;S 6 30 7.99;O 44 19 35.36;Sucupira do Norte;2111904;MA;1087;0.0;;0.0;0.0;460.9;1087.8;0.0;142;2000
747;-8.308010000000001;-45.887;S 8 18 28.84;O 45 53 13.20;Tasso Fragoso;2112001;MA;4426;0.0;;27.1;0.0;0.0;4398.9;0.0;100;2000
748;-15.194220000000001;-56.31716;S 15 11 39.19;O 56 19 1.78;Acorizal;5100102;MT;841;0.0;;0.0;0.0;0.9;840.8;0.0;100;2000
749;-17.42312;-53.4565;S 17 25 23.23;O 53 27 23.40;Alto Araguaia;5100300;MT;5541;0.0;;0.0;0.0;4286.3;5339.3;0.0;173;2000
750;-16.85399;-53.66434;S 16 51 14.36;O 53 39 51.62;Alto Garças;5100409;MT;3658;0.0;;0.0;0.0;1772.1;3658.0;0.0;148;2000
751;-17.77315;-53.34775;S 17 46 23.34;O 53 20 51.90;Alto Taquari;5100607;MT;1391;0.0;;0.0;0.0;492.1;1383.4;0.0;134;2000
752;-16.70281;-53.140519999999995;S 16 42 10.12;O 53 8 25.87;Araguainha;5101209;MT;688;0.0;;0.0;0.0;686.5;687.3;0.0;199;2000
753;-15.593639999999999;-53.01175;S 15 35 37.10;O 53 0 42.30;General Carneiro;5103908;MT;3793;0.0;;0.0;0.0;1.6;3790.3;1.5;100;2000
754;-15.32112;-56.57946999999999;S 15 19 16.03;O 56 34 46.09;Jangada;5104906;MT;1022;0.0;;0.0;0.0;0.0;1022.5;0.0;100;2000
755;-15.91634;-52.6633;S 15 54 58.82;O 52 39 47.88;Pontal do Araguaia;5106653;MT;2755;0.0;;0.0;0.0;2.2;2742.9;10.3;100;2000
756;-16.66906;-52.92828000000001;S 16 40 8.62;O 52 55 41.81;Ponte Branca;5106703;MT;687;0.0;;0.0;0.0;604.7;685.8;0.0;187;2000
757;-16.45789;-52.728880000000004;S 16 27 28.40;O 52 43 43.97;Ribeirãozinho;5107198;MT;623;0.0;;0.0;0.0;22.0;618.7;0.0;102;2000
758;-15.906270000000001;-53.44494;S 15 54 22.57;O 53 26 41.78;Tesouro;5108105;MT;3944;0.0;;0.0;0.0;5.1;3938.9;1.1;100;2000
759;-16.29768;-52.9183;S 16 17 51.65;O 52 55 5.88;Torixoréu;5108204;MT;2397;0.0;;0.0;0.0;3.3;2394.2;1.1;100;2000
760;-15.55785;-56.34461999999999;S 15 33 28.26;O 56 20 40.63;Várzea Grande;5108402;MT;939;0.0;;0.0;0.0;1.4;937.7;0.0;100;2000
1;-7.461139999999999;-52.46225;S 7 27 40.10;O 52 27 44.10;São Félix do Xingu;1507300;PA;84253;8727.7;1690.4;70791.8;0.0;6.5;3788.0;939.0;100;2001
2;-3.12356;-47.40354;S 3 7 24.82;O 47 24 12.74;Paragominas;1505502;PA;19465;7322.3;110.0;12098.2;0.0;1.4;7.1;36.0;100;2001
3;-5.52503;-49.944179999999996;S 5 31 30.11;O 49 56 39.05;Marabá;1504208;PA;15161;6187.5;368.6;8849.6;0.0;1.7;36.2;86.0;100;2001
4;-11.22873;-57.647369999999995;S 11 13 43.43;O 57 38 50.53;Juara;5105101;MT;22666;5752.4;231.7;15156.7;0.0;29.3;1600.6;127.0;100;2001
5;-4.29175;-45.936820000000004;S 4 17 30.30;O 45 56 12.55;Santa Luzia;2110005;MA;6245;5411.0;37.7;833.6;0.0;0.4;0.0;0.0;100;2001
6;-9.276660000000001;-50.54546;S 9 16 35.98;O 50 32 43.66;Santana do Araguaia;1506708;PA;11609;4969.8;355.1;5765.6;0.0;0.3;808.4;64.9;99;2001
7;-4.7020800000000005;-47.22036;S 4 42 7.49;O 47 13 13.30;Açailândia;2100055;MA;5846;4899.4;82.7;945.3;0.0;1.3;0.0;0.0;100;2001
8;-8.50875;-51.37212;S 8 30 31.50;O 51 22 19.63;Cumaru do Norte;1502764;PA;17105;4608.7;436.2;11060.0;0.0;0.3;1436.0;0.0;100;2001
9;-8.64175;-50.39224;S 8 38 30.30;O 50 23 32.06;Santa Maria das Barreiras;1506583;PA;10351;4448.7;430.6;3344.4;0.0;0.0;2508.9;49.0;99;2001
10;-4.4814099999999994;-48.46332;S 4 28 53.08;O 48 27 47.95;Rondon do Pará;1506187;PA;8286;4225.6;67.3;4060.4;0.0;0.0;0.0;0.0;100;2001
11;-8.98448;-63.99115;S 8 59 4.13;O 63 59 28.14;Porto Velho;1100205;RO;34631;4220.8;332.6;29203.8;0.0;23.4;431.9;751.1;100;2001
12;-6.7617;-50.328;S 6 45 42.12;O 50 19 40.80;Água Azul do Norte;1500347;PA;7125;4215.6;252.6;2781.5;0.0;0.0;127.9;0.0;100;2001
13;-10.04165;-56.40435;S 10 2 29.94;O 56 24 15.66;Alta Floresta;5100250;MT;8986;4112.2;286.9;4577.4;0.0;1.6;258.7;36.1;99;2001
14;-15.13556;-60.01729;S 15 8 8.02;O 60 1 2.24;Vila Bela da Santíssima Trindade;5105507;MT;13521;3975.6;196.8;2862.5;0.0;19.6;6590.4;72.9;99;2001
15;-2.81346;-55.58935;S 2 48 48.46;O 55 35 21.66;Santarém;1506807;PA;22890;3971.3;206.9;14367.1;0.0;0.3;663.5;3887.8;100;2001
16;-1.02109;-54.286809999999996;S 1 1 15.92;O 54 17 12.52;Monte Alegre;1504802;PA;19516;3959.1;23.5;12614.0;0.0;3.8;1799.4;1139.7;99;2001
17;-10.68304;-52.63992;S 10 40 58.94;O 52 38 23.71;São José do Xingu;5107354;MT;7465;3881.8;33.5;3215.4;0.0;4.6;306.2;57.0;99;2001
18;-4.52485;-50.19409;S 4 31 29.46;O 50 11 38.72;Novo Repartimento;1505064;PA;15432;3777.9;672.1;10484.9;0.0;0.1;1.0;1168.1;100;2001
19;-15.428920000000002;-59.30169;S 15 25 44.11;O 59 18 6.08;Pontes e Lacerda;5106752;MT;8639;3576.9;122.7;1736.3;0.0;3.0;3322.8;0.0;99;2001
20;-12.69331;-55.777409999999996;S 12 41 35.92;O 55 46 38.68;Sorriso;5107925;MT;9349;3502.2;160.8;1727.0;0.0;0.7;4119.1;0.0;100;2001
21;-11.479560000000001;-52.50108;S 11 28 46.42;O 52 30 3.89;São Félix do Araguaia;5107859;MT;16851;3500.3;103.8;7108.4;0.0;0.7;6180.1;61.5;99;2001
22;-11.52357;-59.196509999999996;S 11 31 24.85;O 59 11 47.44;Juína;5105150;MT;26359;3385.0;98.4;20290.4;0.0;3.0;2639.6;41.0;100;2001
23;-12.2343;-52.7084;S 12 14 3.48;O 52 42 30.24;Querência;5107065;MT;17854;3342.0;208.4;12156.7;0.0;0.8;2273.5;81.0;99;2001
24;-6.03172;-55.968959999999996;S 6 1 54.19;O 55 58 8.26;Itaituba;1503606;PA;62095;3334.2;123.9;57486.1;0.0;3.6;460.8;810.3;100;2001
25;-5.07669;-49.89878;S 5 4 36.08;O 49 53 55.61;Itupiranga;1503705;PA;7901;3329.3;149.1;4453.2;0.0;1.0;5.6;111.9;100;2001
26;-2.53518;-49.05922;S 2 32 6.65;O 49 3 33.19;Moju;1504703;PA;9129;3257.5;569.5;4487.7;0.0;1137.8;190.4;55.6;100;2001
27;-10.01731;-51.43727;S 10 1 2.32;O 51 26 14.17;Vila Rica;5108600;MT;7443;3238.1;198.7;4008.2;0.0;0.0;186.8;9.9;100;2001
28;-1.09331;-46.26696;S 1 5 35.92;O 46 16 1.06;Viseu;1508308;PA;4971;3236.3;99.2;1601.2;0.1;0.7;45.4;87.3;99;2001
29;-6.84864;-49.25551;S 6 50 55.10;O 49 15 19.84;Xinguara;1508407;PA;3793;3172.1;25.8;603.3;0.0;0.0;0.0;17.6;99;2001
30;-3.6996900000000004;-50.602579999999996;S 3 41 58.88;O 50 36 9.29;Pacajá;1505486;PA;11851;3156.7;1601.1;8694.2;0.0;0.1;0.0;0.0;100;2001
31;-7.36998;-50.10481;S 7 22 11.93;O 50 6 17.32;Rio Maria;1506161;PA;4122;3100.4;65.4;885.5;0.0;0.0;128.6;7.5;100;2001
32;-3.96461;-46.50727;S 3 57 52.60;O 46 30 26.17;Bom Jardim;2102002;MA;6648;3079.1;736.5;3505.3;0.0;0.2;55.9;7.5;100;2001
33;-14.988579999999999;-57.97035;S 14 59 18.89;O 57 58 13.26;Barra do Bugres;5101704;MT;6066;3075.3;107.0;2171.6;0.0;0.0;815.7;3.4;100;2001
34;-4.01828;-48.73253;S 4 1 5.81;O 48 43 57.11;Goianésia do Pará;1503093;PA;7048;3003.8;39.9;3562.8;0.0;0.1;0.0;481.3;99;2001
35;-12.10929;-58.17906;S 12 6 33.44;O 58 10 44.62;Brasnorte;5101902;MT;15999;2753.3;33.3;9449.0;0.0;0.0;3762.9;33.8;100;2001
36;-10.40724;-51.737429999999996;S 10 24 26.06;O 51 44 14.75;Confresa;5103353;MT;5801;2742.7;265.5;2735.9;0.0;0.0;320.3;2.1;100;2001
37;-9.978660000000001;-63.05645;S 9 58 43.18;O 63 3 23.22;Ariquemes;1100023;RO;4481;2740.1;78.9;1651.1;0.0;0.0;89.6;0.2;100;2001
38;-8.206719999999999;-49.54786;S 8 12 24.19;O 49 32 52.30;Conceição do Araguaia;1502707;PA;5847;2688.8;107.3;1166.0;0.0;0.3;1874.8;117.1;100;2001
39;-6.3166400000000005;-54.2628;S 6 18 59.90;O 54 15 46.08;Altamira;1500602;PA;159540;2634.7;575.9;151453.9;0.0;22.5;3760.6;1668.3;100;2001
40;-7.25203;-48.282;S 7 15 7.31;O 48 16 55.20;Araguaína;1702109;TO;4019;2618.5;12.3;478.3;0.0;0.7;897.6;23.9;99;2001
